[
  {
    "id": "BGP01",
    "name": "Gorzów Wielkopolski",
    "id2": "SP-00001",
    "loc": "JO72OR",
    "status": "F",
    "lat": 52.73278888888889,
    "lon": 15.240077777777776
  },
  {
    "id": "BGW01",
    "name": "Kostrzyn n.Odrą",
    "id2": "SP-00002",
    "loc": "JO72HN",
    "status": "R",
    "lat": 52.579058333333336,
    "lon": 14.633933333333333
  },
  {
    "id": "BGW02",
    "name": "Santok I ",
    "id2": "SP-00003",
    "loc": "JO72QR",
    "status": "M",
    "lat": 52.73346388888889,
    "lon": 15.399991666666667
  },
  {
    "id": "BGW03",
    "name": "Santok II",
    "id2": "SP-00004",
    "loc": "JO72QR",
    "status": "M",
    "lat": 52.73625555555556,
    "lon": 15.398905555555556
  },
  {
    "id": "BKD01",
    "name": "Bytnica",
    "id2": "SP-00005",
    "loc": "JO72OD",
    "status": "M",
    "lat": 52.15210555555556,
    "lon": 15.166866666666666
  },
  {
    "id": "BKD02",
    "name": "Gubin",
    "id2": "SP-00006",
    "loc": "JO71IW",
    "status": "F",
    "lat": 51.95091388888889,
    "lon": 14.727655555555556
  },
  {
    "id": "BKD03",
    "name": "Krosno Odrzańskie",
    "id2": "SP-00007",
    "loc": "JO72NB",
    "status": "R",
    "lat": 52.04759444444444,
    "lon": 15.101474999999999
  },
  {
    "id": "BKD04",
    "name": "Bobrowice",
    "id2": "SP-00008",
    "loc": "JO71NW",
    "status": "M",
    "lat": 51.95078333333334,
    "lon": 15.088047222222224
  },
  {
    "id": "BMI01",
    "name": "Międzyrzecz",
    "id2": "SP-00009",
    "loc": "JO72SK",
    "status": "R",
    "lat": 52.44506666666666,
    "lon": 15.571880555555556
  },
  {
    "id": "BNG01",
    "name": "Bobrzany                z.w Janowcu",
    "id2": "SP-00010",
    "loc": "JO71RO",
    "status": "F",
    "lat": 51.588505555555564,
    "lon": 15.471533333333333
  },
  {
    "id": "BNG02",
    "name": "Nowoszów        (8km od m.Iłowa)",
    "id2": "SP-00011",
    "loc": "JO71PK",
    "status": "M",
    "lat": 51.44171944444444,
    "lon": 15.269233333333334
  },
  {
    "id": "BNG03",
    "name": "Szprotawa",
    "id2": "SP-00012",
    "loc": "JO71SN",
    "status": "R",
    "lat": 51.564927777777775,
    "lon": 15.539127777777779
  },
  {
    "id": "BNG04",
    "name": "Witków",
    "id2": "SP-00013",
    "loc": "JO71SP",
    "status": "R",
    "lat": 51.628591666666665,
    "lon": 15.519711111111112
  },
  {
    "id": "BNG05",
    "name": "Żagań I                         z.Sagan",
    "id2": "SP-00014",
    "loc": "JO71PO",
    "status": "Z",
    "lat": 51.61235833333333,
    "lon": 15.324177777777777
  },
  {
    "id": "BNG06",
    "name": "Żagań II                          z.Stary",
    "id2": "SP-00015",
    "loc": "JO71PO",
    "status": "F",
    "lat": 51.61628888888889,
    "lon": 15.318788888888887
  },
  {
    "id": "BNG07",
    "name": "Dzietrzychowice",
    "id2": "SP-00016",
    "loc": "JO71PM",
    "status": "Z",
    "lat": 51.661699999999996,
    "lon": 15.330475
  },
  {
    "id": "BNG08",
    "name": "Chichy",
    "id2": "SP-00017",
    "loc": "JO71RO",
    "status": "Z",
    "lat": 51.59682222222223,
    "lon": 15.476247222222222
  },
  {
    "id": "BNG09",
    "name": "Siecieborzyce",
    "id2": "SP-00018",
    "loc": "JO71SP",
    "status": "Z",
    "lat": 51.66461944444444,
    "lon": 15.538697222222222
  },
  {
    "id": "BNG10",
    "name": "Chotków",
    "id2": "SP-01285",
    "loc": "JO71RQ",
    "status": "Z",
    "lat": 51.703575,
    "lon": 15.475283333333334
  },
  {
    "id": "BNG11",
    "name": "Długie",
    "id2": "SP-01286",
    "loc": "JO71TP",
    "status": "Z",
    "lat": 51.64974166666667,
    "lon": 15.665922222222223
  },
  {
    "id": "BNG12",
    "name": "Gorzupia Dolna",
    "id2": "SP-01287",
    "loc": "JO71PR",
    "status": "R",
    "lat": 51.72932222222223,
    "lon": 15.27951388888889
  },
  {
    "id": "BNG13",
    "name": "Miodnica ",
    "id2": "SP-01293",
    "loc": "JO71PQ",
    "status": "Z",
    "lat": 51.692636111111106,
    "lon": 15.302658333333333
  },
  {
    "id": "BNG14",
    "name": "Zimna Brzeźnica",
    "id2": "SP-01294",
    "loc": "J071VP",
    "status": "R",
    "lat": 51.65150833333333,
    "lon": 15.81617777777778
  },
  {
    "id": "BNL01",
    "name": "Borów Polski",
    "id2": "SP-00019",
    "loc": "JO71UQ",
    "status": "R",
    "lat": 51.69840833333333,
    "lon": 15.670302777777778
  },
  {
    "id": "BNL02",
    "name": "Bytom Odrzański",
    "id2": "SP-00020",
    "loc": "JO71VR",
    "status": "R",
    "lat": 51.72956388888889,
    "lon": 15.830152777777778
  },
  {
    "id": "BNL03",
    "name": "Kożuchów",
    "id2": "SP-00021",
    "loc": "JO71TR",
    "status": "Z",
    "lat": 51.74717777777778,
    "lon": 15.59473611111111
  },
  {
    "id": "BNL04",
    "name": "Otyń",
    "id2": "SP-00022",
    "loc": "JO71UU",
    "status": "R",
    "lat": 51.84636944444445,
    "lon": 15.712519444444442
  },
  {
    "id": "BNL05",
    "name": "Siedlisko",
    "id2": "SP-00023",
    "loc": "JO71VS",
    "status": "R",
    "lat": 51.76670277777777,
    "lon": 15.804447222222224
  },
  {
    "id": "BNL06",
    "name": "Broniszów",
    "id2": "SP-00024",
    "loc": "JO71RS",
    "status": "Z",
    "lat": 51.780052777777776,
    "lon": 15.490352777777778
  },
  {
    "id": "BNL07",
    "name": "Konotop",
    "id2": "SP-00025",
    "loc": "JO71WW",
    "status": "M",
    "lat": 51.933058333333335,
    "lon": 15.900855555555555
  },
  {
    "id": "BNL08",
    "name": "Solniki",
    "id2": "SP-00026",
    "loc": "JO71TR",
    "status": "Z",
    "lat": 51.720013888888886,
    "lon": 15.652669444444445
  },
  {
    "id": "BNL09",
    "name": "Czciradz",
    "id2": "SP-00027",
    "loc": "JO71TR",
    "status": "Z",
    "lat": 51.73741388888889,
    "lon": 15.642966666666666
  },
  {
    "id": "BNL10",
    "name": "Studzieniec",
    "id2": "SP-00028",
    "loc": "JO71ST",
    "status": "R",
    "lat": 51.79517499999999,
    "lon": 15.563736111111112
  },
  {
    "id": "BNL11",
    "name": "Stypułów  (Środkowy)",
    "id2": "SP-01296",
    "loc": "JO71SQ",
    "status": "Z",
    "lat": 51.70293333333334,
    "lon": 15.551466666666666
  },
  {
    "id": "BNL12",
    "name": "Drwalewice  (Drwalowice)",
    "id2": "SP-01297",
    "loc": "JO71UR",
    "status": "Z",
    "lat": 51.73973055555555,
    "lon": 15.667191666666666
  },
  {
    "id": "BNL13",
    "name": "Miłaków",
    "id2": "SP-01302",
    "loc": "JO71VQ",
    "status": "F",
    "lat": 51.67750833333333,
    "lon": 15.794711111111111
  },
  {
    "id": "BNL14",
    "name": "Mirocin Górny",
    "id2": "SP-01303",
    "loc": "JO71SS",
    "status": "R",
    "lat": 51.755125,
    "lon": 15.513636111111111
  },
  {
    "id": "BNL15",
    "name": "Sobolice",
    "id2": "SP-01304",
    "loc": "JO71WQ",
    "status": "R",
    "lat": 51.692069444444435,
    "lon": 15.85038611111111
  },
  {
    "id": "BSC01",
    "name": "Górzyca",
    "id2": "SP-00029",
    "loc": "JO72HL",
    "status": "M",
    "lat": 52.494463888888895,
    "lon": 14.654869444444445
  },
  {
    "id": "BSC02",
    "name": "Ośno Lubuskie",
    "id2": "SP-00030",
    "loc": "JO72KK",
    "status": "F",
    "lat": 52.45415555555556,
    "lon": 14.8694
  },
  {
    "id": "BSK01",
    "name": "Chomętowo",
    "id2": "SP-00031",
    "loc": "JO72TW",
    "status": "F",
    "lat": 52.94671111111111,
    "lon": 15.661008333333335
  },
  {
    "id": "BSK02",
    "name": "Drezdenko",
    "id2": "SP-00032",
    "loc": "JO72VU",
    "status": "M",
    "lat": 52.84280833333334,
    "lon": 15.83028611111111
  },
  {
    "id": "BSK03",
    "name": "Stare Osieczno",
    "id2": "SP-00033",
    "loc": "JO73XA",
    "status": "M",
    "lat": 53.00588333333334,
    "lon": 15.951988888888888
  },
  {
    "id": "BSK04",
    "name": "Danków Pomorski",
    "id2": "SP-00034",
    "loc": "JO72QW",
    "status": "M",
    "lat": 52.93863333333333,
    "lon": 15.359269444444445
  },
  {
    "id": "BSK05",
    "name": "Strzelce Krajeńskie",
    "id2": "SP-00035",
    "loc": "JO72SV",
    "status": "R",
    "lat": 52.88033611111111,
    "lon": 15.530369444444444
  },
  {
    "id": "BSN01",
    "name": "Lubniewice",
    "id2": "SP-00036",
    "loc": "JO72OM",
    "status": "Z",
    "lat": 52.515975,
    "lon": 15.249394444444443
  },
  {
    "id": "BSN02",
    "name": "Słońsk",
    "id2": "SP-00037",
    "loc": "JO72JN",
    "status": "R",
    "lat": 52.570775000000005,
    "lon": 14.806733333333334
  },
  {
    "id": "BSN03",
    "name": "Sulęcin",
    "id2": "SP-00038",
    "loc": "JO72NK",
    "status": "M",
    "lat": 52.44284444444445,
    "lon": 15.11003611111111
  },
  {
    "id": "BSN04",
    "name": "Torzym",
    "id2": "SP-00039",
    "loc": "JO72MH",
    "status": "M",
    "lat": 52.31642222222222,
    "lon": 15.078741666666666
  },
  {
    "id": "BSO01",
    "name": "Łagów",
    "id2": "SP-00040",
    "loc": "JO72PI",
    "status": "Z",
    "lat": 52.33470277777778,
    "lon": 15.292830555555556
  },
  {
    "id": "BSO02",
    "name": "Świebodzin",
    "id2": "SP-00041",
    "loc": "JO72SG",
    "status": "Z",
    "lat": 52.25051944444444,
    "lon": 15.534930555555555
  },
  {
    "id": "BSO03",
    "name": "Szczaniec",
    "id2": "SP-00042",
    "loc": "JO72UG",
    "status": "M",
    "lat": 52.267513888888885,
    "lon": 15.683872222222222
  },
  {
    "id": "BWP01",
    "name": "Tarnów Jezierny",
    "id2": "SP-00043",
    "loc": "JO71XU",
    "status": "M",
    "lat": 51.855491666666666,
    "lon": 15.992761111111111
  },
  {
    "id": "BWP02",
    "name": "Wschowa",
    "id2": "SP-00044",
    "loc": "JO81DT",
    "status": "Z",
    "lat": 51.803577777777775,
    "lon": 16.319197222222222
  },
  {
    "id": "BWP03",
    "name": "Sława",
    "id2": "SP-00045",
    "loc": "JO81AV",
    "status": "F",
    "lat": 51.87684722222222,
    "lon": 16.069269444444444
  },
  {
    "id": "BWP04",
    "name": "Krzepielów",
    "id2": "SP-00046",
    "loc": "JO81BS",
    "status": "R",
    "lat": 51.788575,
    "lon": 16.10750277777778
  },
  {
    "id": "BWP05",
    "name": "Jędrzychowice",
    "id2": "SP-00047",
    "loc": "JO81DR",
    "status": "F",
    "lat": 51.74515833333333,
    "lon": 16.282169444444445
  },
  {
    "id": "BWP06",
    "name": "Krążkowo",
    "id2": "SP-01480",
    "loc": "JO81AT",
    "status": "R",
    "lat": 51.80223888888889,
    "lon": 16.065208333333334
  },
  {
    "id": "BZG01",
    "name": "Letnica",
    "id2": "SP-00048",
    "loc": "JO71QV",
    "status": "F",
    "lat": 51.89684722222222,
    "lon": 15.334216666666666
  },
  {
    "id": "BZG02",
    "name": "Nowogród Bobrzański",
    "id2": "SP-00049",
    "loc": "JO71OT",
    "status": "F",
    "lat": 51.802327777777776,
    "lon": 15.244502777777777
  },
  {
    "id": "BZG03",
    "name": "Sulechów",
    "id2": "SP-00050",
    "loc": "JO72TC",
    "status": "Z",
    "lat": 52.086755555555555,
    "lon": 15.62723888888889
  },
  {
    "id": "BZG04",
    "name": "Buchałów",
    "id2": "SP-00051",
    "loc": "JO71QV",
    "status": "F",
    "lat": 51.914477777777776,
    "lon": 15.362977777777777
  },
  {
    "id": "BZG05",
    "name": "Czerwieńsk",
    "id2": "SP-00052",
    "loc": "JO72RA",
    "status": "M",
    "lat": 52.012791666666665,
    "lon": 15.422983333333331
  },
  {
    "id": "BZG06",
    "name": "Kargowa",
    "id2": "SP-00053",
    "loc": "JO72WB",
    "status": "F",
    "lat": 52.07508055555556,
    "lon": 15.868575
  },
  {
    "id": "BZG07",
    "name": "Białowice I                  kośc.obr.",
    "id2": "SP-01305",
    "loc": "JO71OS",
    "status": "Z",
    "lat": 51.768875,
    "lon": 15.173266666666667
  },
  {
    "id": "BZG08",
    "name": "Białowice II",
    "id2": "SP-01309",
    "loc": "JO71OS",
    "status": "R",
    "lat": 51.7717,
    "lon": 15.169119444444444
  },
  {
    "id": "BZG09",
    "name": "Świdnica",
    "id2": "SP-01310",
    "loc": "JO71QV",
    "status": "Z",
    "lat": 51.890569444444445,
    "lon": 15.398019444444444
  },
  {
    "id": "BZY01",
    "name": "Lubsko",
    "id2": "SP-00054",
    "loc": "JO71LS",
    "status": "Z",
    "lat": 51.78906666666666,
    "lon": 14.96885
  },
  {
    "id": "BZY02",
    "name": "Przewóz",
    "id2": "SP-00055",
    "loc": "JO71LL",
    "status": "F",
    "lat": 51.476241666666674,
    "lon": 14.945625
  },
  {
    "id": "BZY03",
    "name": "Trzebiel I                     wieża obr.",
    "id2": "SP-00056",
    "loc": "JO71JP",
    "status": "R",
    "lat": 51.63374722222222,
    "lon": 14.817983333333332
  },
  {
    "id": "BZY04",
    "name": "Żary",
    "id2": "SP-00057",
    "loc": "JO71NP",
    "status": "Z",
    "lat": 51.63974444444444,
    "lon": 15.141505555555556
  },
  {
    "id": "BZY05",
    "name": "Żarki Wielkie",
    "id2": "SP-00058",
    "loc": "JO71JO",
    "status": "R",
    "lat": 51.596336111111114,
    "lon": 14.757308333333333
  },
  {
    "id": "BZY06",
    "name": "Dłużek",
    "id2": "SP-00059",
    "loc": "JO71LS",
    "status": "F",
    "lat": 51.769863888888885,
    "lon": 14.929205555555555
  },
  {
    "id": "BZY07",
    "name": "Górzyn",
    "id2": "SP-00060",
    "loc": "JO71LT",
    "status": "F",
    "lat": 51.82939722222223,
    "lon": 14.977255555555555
  },
  {
    "id": "BZY08",
    "name": "Trzebiel II                         zamek",
    "id2": "SP-01311",
    "loc": "JO71JP",
    "status": "R",
    "lat": 51.6334,
    "lon": 14.817272222222222
  },
  {
    "id": "BZY09",
    "name": "Lipniki Łużyckie",
    "id2": "SP-01312",
    "loc": "JO71MP",
    "status": "F",
    "lat": 51.64396388888889,
    "lon": 15.008344444444443
  },
  {
    "id": "BZY10",
    "name": "Biecz I                   stary zamek",
    "id2": "SP-01313",
    "loc": "JO71JT",
    "status": "M",
    "lat": 51.80844999999999,
    "lon": 14.831111111111111
  },
  {
    "id": "BZY11",
    "name": "Biecz II                  nowy zamek",
    "id2": "SP-01314",
    "loc": "JO71JT",
    "status": "R",
    "lat": 51.80886666666666,
    "lon": 14.835097222222224
  },
  {
    "id": "CAQ01",
    "name": "Łopatki           (Łopatki-Cegielnia)",
    "id2": "SP-00061",
    "loc": "JO91NN",
    "status": "F",
    "lat": 51.57006388888889,
    "lon": 19.112969444444445
  },
  {
    "id": "CAQ02",
    "name": "Wola Wężykowa",
    "id2": "SP-00062",
    "loc": "JO91ML",
    "status": "R",
    "lat": 51.47862222222223,
    "lon": 19.005905555555554
  },
  {
    "id": "CBJ01",
    "name": "Mikorzyce",
    "id2": "SP-00063",
    "loc": "JO91PJ",
    "status": "R",
    "lat": 51.410558333333334,
    "lon": 19.33318888888889
  },
  {
    "id": "CBJ02",
    "name": "Rusiec",
    "id2": "SP-00064",
    "loc": "JO91LH",
    "status": "M",
    "lat": 51.32521944444445,
    "lon": 18.990930555555558
  },
  {
    "id": "CBJ03",
    "name": "Krześlów",
    "id2": "SP-00065",
    "loc": "JO91NK",
    "status": "F",
    "lat": 51.43749722222222,
    "lon": 19.1653
  },
  {
    "id": "CBW01",
    "name": "Brzeziny",
    "id2": "SP-00066",
    "loc": "JO91VT",
    "status": "F",
    "lat": 51.80043055555555,
    "lon": 19.750105555555557
  },
  {
    "id": "CDD01",
    "name": "Uniejów",
    "id2": "SP-00067",
    "loc": "JO91JX",
    "status": "Z",
    "lat": 51.973058333333334,
    "lon": 18.788630555555557
  },
  {
    "id": "CDD02",
    "name": "Borzewisko",
    "id2": "SP-00068",
    "loc": "JO91JV",
    "status": "M",
    "lat": 51.90490555555555,
    "lon": 18.78681666666667
  },
  {
    "id": "CDD03",
    "name": "Spicimierz              (Spycimierz)",
    "id2": "SP-00069",
    "loc": "JO91JW",
    "status": "M",
    "lat": 51.95173888888889,
    "lon": 18.783302777777777
  },
  {
    "id": "CDD04",
    "name": "Dąbrówka",
    "id2": "SP-00070",
    "loc": "JO91KU",
    "status": "M",
    "lat": 51.83991111111111,
    "lon": 18.886488888888888
  },
  {
    "id": "CEC01",
    "name": "Besiekiery",
    "id2": "SP-00071",
    "loc": "JO92LD",
    "status": "R",
    "lat": 52.153238888888886,
    "lon": 18.96505
  },
  {
    "id": "CEC02",
    "name": "Łęczyca",
    "id2": "SP-00072",
    "loc": "JO92OB",
    "status": "Z",
    "lat": 52.05889722222222,
    "lon": 19.203772222222224
  },
  {
    "id": "CEC03",
    "name": "Tum",
    "id2": "SP-00073",
    "loc": "JO92OB",
    "status": "Z",
    "lat": 52.05613333333333,
    "lon": 19.23254722222222
  },
  {
    "id": "CEC04",
    "name": "Nowy Gaj                         (Gaj)",
    "id2": "SP-01273",
    "loc": "JO92QR",
    "status": "M",
    "lat": 52.067969444444444,
    "lon": 19.383844444444446
  },
  {
    "id": "CGV01",
    "name": "Stryków I ",
    "id2": "SP-00074",
    "loc": "JO91TV",
    "status": "M",
    "lat": 51.904774999999994,
    "lon": 19.585519444444444
  },
  {
    "id": "CGV02",
    "name": "Stryków II",
    "id2": "SP-00075",
    "loc": "JO91TV",
    "status": "M",
    "lat": 51.90283055555555,
    "lon": 19.587072222222222
  },
  {
    "id": "CGV03",
    "name": "Bełdów",
    "id2": "SP-00076",
    "loc": "JO91OT",
    "status": "M",
    "lat": 51.82715833333334,
    "lon": 19.175811111111113
  },
  {
    "id": "CGV04",
    "name": "Nakielnica",
    "id2": "SP-01325",
    "loc": "JO91PU",
    "status": "M",
    "lat": 51.8474,
    "lon": 19.26665555555556
  },
  {
    "id": "CIA01",
    "name": "Sieradz",
    "id2": "SP-00077",
    "loc": "JO91IO",
    "status": "M",
    "lat": 51.59331388888889,
    "lon": 18.74791111111111
  },
  {
    "id": "CIA02",
    "name": "Burzenin",
    "id2": "SP-00078",
    "loc": "JO91KK",
    "status": "M",
    "lat": 51.45525277777778,
    "lon": 18.83695277777778
  },
  {
    "id": "CIA03",
    "name": "Chojne",
    "id2": "SP-00079",
    "loc": "JO91JM",
    "status": "F",
    "lat": 51.53948333333333,
    "lon": 18.812530555555554
  },
  {
    "id": "CIA04",
    "name": "Kalinowa",
    "id2": "SP-00080",
    "loc": "JO91FQ",
    "status": "F",
    "lat": 51.69348055555555,
    "lon": 18.481394444444444
  },
  {
    "id": "CIA05",
    "name": "Sędzimirowice",
    "id2": "SP-00081",
    "loc": "JO91FR",
    "status": "M",
    "lat": 51.71276944444445,
    "lon": 18.437358333333332
  },
  {
    "id": "CIA06",
    "name": "Kościerzyn",
    "id2": "SP-00082",
    "loc": "JO91HP",
    "status": "F",
    "lat": 51.628502777777776,
    "lon": 18.635655555555555
  },
  {
    "id": "CIR01",
    "name": "Skierniewice",
    "id2": "SP-00083",
    "loc": "KO01BX",
    "status": "M",
    "lat": 51.96115833333334,
    "lon": 20.141541666666665
  },
  {
    "id": "CIT01",
    "name": "Piotrków Tryb. I                z.Byki",
    "id2": "SP-00084",
    "loc": "JO91TK",
    "status": "Z",
    "lat": 51.436838888888886,
    "lon": 19.66178888888889
  },
  {
    "id": "CIT02",
    "name": "Piotrków Tryb. II        z.Królewski",
    "id2": "SP-00085",
    "loc": "JO91UJ",
    "status": "Z",
    "lat": 51.409188888888885,
    "lon": 19.700613888888885
  },
  {
    "id": "CIW01",
    "name": "Bolimów",
    "id2": "SP-01331",
    "loc": "KO02BB",
    "status": "M",
    "lat": 52.07499722222223,
    "lon": 20.164675
  },
  {
    "id": "CIZ01",
    "name": "Łowicz",
    "id2": "SP-00086",
    "loc": "JO92XC",
    "status": "R",
    "lat": 52.11073888888889,
    "lon": 19.92913611111111
  },
  {
    "id": "CIZ02",
    "name": "Sobota",
    "id2": "SP-00087",
    "loc": "JO92UC",
    "status": "F",
    "lat": 52.11226666666666,
    "lon": 19.696572222222223
  },
  {
    "id": "CIZ03",
    "name": "Seligi",
    "id2": "SP-00088",
    "loc": "JO92TC",
    "status": "M",
    "lat": 52.10621388888889,
    "lon": 19.629497222222223
  },
  {
    "id": "CKU01",
    "name": "Oporów",
    "id2": "SP-00089",
    "loc": "JO92SG",
    "status": "Z",
    "lat": 52.26252222222222,
    "lon": 19.56223333333333
  },
  {
    "id": "CKU02",
    "name": "Łanięta",
    "id2": "SP-00090",
    "loc": "JO92PI",
    "status": "F",
    "lat": 52.36116944444445,
    "lon": 19.28223611111111
  },
  {
    "id": "CKU03",
    "name": "Orłów",
    "id2": "SP-00091",
    "loc": "JO92SD",
    "status": "M",
    "lat": 52.135575,
    "lon": 19.544772222222225
  },
  {
    "id": "CKU04",
    "name": "Żychlin",
    "id2": "SP-00092",
    "loc": "JO92TF",
    "status": "M",
    "lat": 52.244436111111106,
    "lon": 19.625566666666668
  },
  {
    "id": "CLY01",
    "name": "Górki Duże",
    "id2": "SP-00093",
    "loc": "JO91SN",
    "status": "M",
    "lat": 51.565016666666665,
    "lon": 19.501233333333335
  },
  {
    "id": "COH01",
    "name": "Drzewica",
    "id2": "SP-00094",
    "loc": "KO01FK",
    "status": "R",
    "lat": 51.449572222222216,
    "lon": 20.47890833333333
  },
  {
    "id": "COH02",
    "name": "Opoczno",
    "id2": "SP-00095",
    "loc": "KO01DJ",
    "status": "Z",
    "lat": 51.37529444444444,
    "lon": 20.28942222222222
  },
  {
    "id": "COH03",
    "name": "Zameczek             z.Damujowice",
    "id2": "SP-00096",
    "loc": "KO01EJ",
    "status": "M",
    "lat": 51.41634166666666,
    "lon": 20.345702777777774
  },
  {
    "id": "COH04",
    "name": "Białaczów",
    "id2": "SP-00097",
    "loc": "KO01DH",
    "status": "F",
    "lat": 51.29962777777777,
    "lon": 20.292519444444444
  },
  {
    "id": "COH05",
    "name": "Żarnów                        kośc.obr.",
    "id2": "SP-01337",
    "loc": "KO01CF",
    "status": "F",
    "lat": 51.24923611111111,
    "lon": 20.171925
  },
  {
    "id": "CPB01",
    "name": "Lutomiersk",
    "id2": "SP-00098",
    "loc": "JO91OS",
    "status": "F",
    "lat": 51.755675,
    "lon": 19.21862222222222
  },
  {
    "id": "CPB02",
    "name": "Pabianice",
    "id2": "SP-00099",
    "loc": "JO91QP",
    "status": "Z",
    "lat": 51.664163888888886,
    "lon": 19.360366666666668
  },
  {
    "id": "CPB03",
    "name": "Malanów",
    "id2": "SP-00100",
    "loc": "JO91NT",
    "status": "M",
    "lat": 51.80931111111111,
    "lon": 19.147841666666665
  },
  {
    "id": "CPT01",
    "name": "Bąkowa Góra",
    "id2": "SP-00101",
    "loc": "JO91WD",
    "status": "R",
    "lat": 51.139891666666664,
    "lon": 19.860108333333336
  },
  {
    "id": "CPT02",
    "name": "Gorzkowice",
    "id2": "SP-00102",
    "loc": "JO91TF",
    "status": "M",
    "lat": 51.21293611111111,
    "lon": 19.59850833333333
  },
  {
    "id": "CPT03",
    "name": "Majkowice I",
    "id2": "SP-00103",
    "loc": "JO91WD",
    "status": "R",
    "lat": 51.165502777777775,
    "lon": 19.884597222222222
  },
  {
    "id": "CPT04",
    "name": "Sulejów",
    "id2": "SP-00104",
    "loc": "JO91WI",
    "status": "Z",
    "lat": 51.36450277777778,
    "lon": 19.87910833333333
  },
  {
    "id": "CPT05",
    "name": "Wolbórz I ",
    "id2": "SP-00105",
    "loc": "JO91VM",
    "status": "M",
    "lat": 51.50434166666667,
    "lon": 19.82871111111111
  },
  {
    "id": "CPT06",
    "name": "Witów",
    "id2": "SP-00106",
    "loc": "JO91VJ",
    "status": "F",
    "lat": 51.37639444444444,
    "lon": 19.759741666666667
  },
  {
    "id": "CPT07 ",
    "name": "Majkowice II                z.Surdęga",
    "id2": "SP-00107",
    "loc": "JO91WE",
    "status": "F",
    "lat": 51.17135833333333,
    "lon": 19.911927777777777
  },
  {
    "id": "CPT08 ",
    "name": "Majkowice III",
    "id2": "SP-00108",
    "loc": "JO91WD",
    "status": "M",
    "lat": 51.165458333333326,
    "lon": 19.899241666666665
  },
  {
    "id": "CPT09",
    "name": "Wolbórz II",
    "id2": "SP-00109",
    "loc": "JO91VM",
    "status": "M",
    "lat": 51.505494444444444,
    "lon": 19.830841666666668
  },
  {
    "id": "CPT10",
    "name": "Skotniki",
    "id2": "SP-01351",
    "loc": "JO91XE",
    "status": "R",
    "lat": 51.201280555555556,
    "lon": 19.936747222222223
  },
  {
    "id": "CPV01",
    "name": "Nowa Brzeźnica I ",
    "id2": "SP-00110",
    "loc": "JO91OC",
    "status": "M",
    "lat": 51.083825,
    "lon": 19.179391666666668
  },
  {
    "id": "CPV02",
    "name": "Działoszyn",
    "id2": "SP-00111",
    "loc": "JO91KC",
    "status": "F",
    "lat": 51.11354166666667,
    "lon": 18.857744444444446
  },
  {
    "id": "CPV03",
    "name": "Siemkowice",
    "id2": "SP-00112",
    "loc": "JO91KE",
    "status": "F",
    "lat": 51.20560277777778,
    "lon": 18.89287222222222
  },
  {
    "id": "CPV04",
    "name": "Chorzenice",
    "id2": "SP-00113",
    "loc": "JO91PE",
    "status": "F",
    "lat": 51.19061666666666,
    "lon": 19.261525
  },
  {
    "id": "CPV05",
    "name": "Biała",
    "id2": "SP-00114",
    "loc": "JO91ME",
    "status": "F",
    "lat": 51.18521111111111,
    "lon": 19.02972777777778
  },
  {
    "id": "CPV06",
    "name": "Kiełczygłów",
    "id2": "SP-00115",
    "loc": "JO91LF",
    "status": "F",
    "lat": 51.237633333333335,
    "lon": 18.98313611111111
  },
  {
    "id": "CPV07",
    "name": "Prusicko",
    "id2": "SP-00116",
    "loc": "JO91OA",
    "status": "M",
    "lat": 51.03068888888888,
    "lon": 19.190452777777775
  },
  {
    "id": "CPV08",
    "name": "Nowa Brzeźnica II         kośc.obr.",
    "id2": "SP-01274",
    "loc": "JO91OB",
    "status": "F",
    "lat": 51.08164722222223,
    "lon": 19.18135277777778
  },
  {
    "id": "CRE01",
    "name": "Przedbórz",
    "id2": "SP-00117",
    "loc": "JO91WC",
    "status": "F",
    "lat": 51.08827222222222,
    "lon": 19.874730555555555
  },
  {
    "id": "CRE02",
    "name": "Radomsko",
    "id2": "SP-00118",
    "loc": "JO91RB",
    "status": "M",
    "lat": 51.07960555555556,
    "lon": 19.44353611111111
  },
  {
    "id": "CRE03",
    "name": "Pukarzów",
    "id2": "SP-00119",
    "loc": "JO90VV",
    "status": "F",
    "lat": 50.87630277777778,
    "lon": 19.756658333333334
  },
  {
    "id": "CRE04",
    "name": "Chełmo",
    "id2": "SP-00120",
    "loc": "JO91VB",
    "status": "F",
    "lat": 51.071469444444446,
    "lon": 19.751369444444446
  },
  {
    "id": "CRX01",
    "name": "Rawa Mazowiecka",
    "id2": "SP-00121",
    "loc": "KO01DS",
    "status": "F",
    "lat": 51.76829722222222,
    "lon": 20.253383333333336
  },
  {
    "id": "CTZ01",
    "name": "Będków",
    "id2": "SP-00122",
    "loc": "JO91UO",
    "status": "R",
    "lat": 51.58808055555556,
    "lon": 19.745625
  },
  {
    "id": "CTZ02",
    "name": "Inowłódz I                     zam.ryc.",
    "id2": "SP-00123",
    "loc": "KO01CM",
    "status": "R",
    "lat": 51.523827777777775,
    "lon": 20.220402777777778
  },
  {
    "id": "CTZ03",
    "name": "Ujazd",
    "id2": "SP-00124",
    "loc": "JO91XO",
    "status": "F",
    "lat": 51.598711111111115,
    "lon": 19.924052777777778
  },
  {
    "id": "CTZ04",
    "name": "Inowłódz II                    kośc.obr.",
    "id2": "SP-00125",
    "loc": "KO01CM",
    "status": "Z",
    "lat": 51.52738333333333,
    "lon": 20.227427777777777
  },
  {
    "id": "CUL01",
    "name": "Wojsławice",
    "id2": "SP-00126",
    "loc": "JO91LP",
    "status": "R",
    "lat": 51.65564722222222,
    "lon": 18.919038888888892
  },
  {
    "id": "CUL02",
    "name": "Szadek",
    "id2": "SP-00127",
    "loc": "JO91LQ",
    "status": "Z",
    "lat": 51.69231388888889,
    "lon": 18.973630555555552
  },
  {
    "id": "CUS01",
    "name": "Bolesławiec (Łódzki)",
    "id2": "SP-00128",
    "loc": "JO91CE",
    "status": "R",
    "lat": 51.19773611111111,
    "lon": 18.182733333333335
  },
  {
    "id": "CUS02",
    "name": "Wieruszów",
    "id2": "SP-00129",
    "loc": "JO91BH",
    "status": "R",
    "lat": 51.29600277777778,
    "lon": 18.147005555555555
  },
  {
    "id": "CUS03",
    "name": "Kąty Walichnowskie",
    "id2": "SP-00130",
    "loc": "JO91EG",
    "status": "M",
    "lat": 51.28998055555555,
    "lon": 18.3356
  },
  {
    "id": "CWU01",
    "name": "Wieluń",
    "id2": "SP-00131",
    "loc": "JO91GF",
    "status": "R",
    "lat": 51.21935555555555,
    "lon": 18.571644444444445
  },
  {
    "id": "CWU02",
    "name": "Kamionka",
    "id2": "SP-00132",
    "loc": "JO91HE",
    "status": "Z",
    "lat": 51.178725,
    "lon": 18.59091111111111
  },
  {
    "id": "CWU03",
    "name": "Masłowice",
    "id2": "SP-01352",
    "loc": "JO91HG",
    "status": "M",
    "lat": 51.25071944444445,
    "lon": 18.634841666666667
  },
  {
    "id": "CWU04",
    "name": "Krzyworzeka               kośc.obr.",
    "id2": "SP-01356",
    "loc": "JO91GE",
    "status": "Z",
    "lat": 51.18199444444444,
    "lon": 18.51343888888889
  },
  {
    "id": "DAB01",
    "name": "Wałbrzych I                   z.Książ",
    "id2": "SP-00133",
    "loc": "JO80DU",
    "status": "Z",
    "lat": 50.842172222222224,
    "lon": 16.291505555555556
  },
  {
    "id": "DAB02",
    "name": "Wałbrzych II          z.Stary Książ",
    "id2": "SP-00134",
    "loc": "JO80DU",
    "status": "R",
    "lat": 50.83799444444445,
    "lon": 16.29387777777778
  },
  {
    "id": "DAB03",
    "name": "Wałbrzych III             Nowy Dwór",
    "id2": "SP-00135",
    "loc": "JO80DR",
    "status": "R",
    "lat": 50.734386111111114,
    "lon": 16.29384166666667
  },
  {
    "id": "DAB04",
    "name": "Wałbrzych IV            z.Zedlitzów",
    "id2": "SP-00136",
    "loc": "JO80DS",
    "status": "F",
    "lat": 50.76246388888889,
    "lon": 16.281530555555555
  },
  {
    "id": "DAB05",
    "name": "Cieszów Górny                 z.Cisy",
    "id2": "SP-00137",
    "loc": "JO80CU",
    "status": "R",
    "lat": 50.84863333333333,
    "lon": 16.247788888888888
  },
  {
    "id": "DAB06",
    "name": "Czarny Bór",
    "id2": "SP-00138",
    "loc": "JO80BS",
    "status": "R",
    "lat": 50.77688333333333,
    "lon": 16.12738611111111
  },
  {
    "id": "DAB07",
    "name": "Grzędy                   z.Wojaczów",
    "id2": "SP-00139",
    "loc": "JO80BR",
    "status": "R",
    "lat": 50.73866388888889,
    "lon": 16.14751111111111
  },
  {
    "id": "DAB08",
    "name": "Grzmiąca                 z.Rogowiec",
    "id2": "SP-00140",
    "loc": "JO80DQ",
    "status": "R",
    "lat": 50.693488888888886,
    "lon": 16.314747222222223
  },
  {
    "id": "DAB09",
    "name": "Jedlina Zdrój",
    "id2": "SP-00141",
    "loc": "JO80ER",
    "status": "Z",
    "lat": 50.71500833333334,
    "lon": 16.356808333333337
  },
  {
    "id": "DAB10",
    "name": "Mieroszów",
    "id2": "SP-00142",
    "loc": "JO80CQ",
    "status": "M",
    "lat": 50.66809722222222,
    "lon": 16.185019444444443
  },
  {
    "id": "DAB11",
    "name": "Olszyniec",
    "id2": "SP-00143",
    "loc": "JO80ER",
    "status": "M",
    "lat": 50.72528611111111,
    "lon": 16.37433888888889
  },
  {
    "id": "DAB12",
    "name": "Rybnica Leśna           z.Radosno",
    "id2": "SP-00144",
    "loc": "JO80CQ",
    "status": "R",
    "lat": 50.68177222222222,
    "lon": 16.24855277777778
  },
  {
    "id": "DAB13",
    "name": "Struga",
    "id2": "SP-00145",
    "loc": "JO80CT",
    "status": "F",
    "lat": 50.82326944444444,
    "lon": 16.22568888888889
  },
  {
    "id": "DAB14",
    "name": "Zagórze Śląskie            z.Grodno",
    "id2": "SP-00146",
    "loc": "JO80ER",
    "status": "Z",
    "lat": 50.74986666666667,
    "lon": 16.4107
  },
  {
    "id": "DBE01",
    "name": "Bolesławiec (Dolnośl.)",
    "id2": "SP-00147",
    "loc": "JO71SG",
    "status": "R",
    "lat": 51.26218611111111,
    "lon": 15.561488888888888
  },
  {
    "id": "DBE02",
    "name": "Gościszów",
    "id2": "SP-00148",
    "loc": "JO71RD",
    "status": "R",
    "lat": 51.16083888888888,
    "lon": 15.455544444444444
  },
  {
    "id": "DBE03",
    "name": "Kliczków",
    "id2": "SP-00149",
    "loc": "JO71RI",
    "status": "Z",
    "lat": 51.33665277777778,
    "lon": 15.433883333333332
  },
  {
    "id": "DBE04",
    "name": "Modła",
    "id2": "SP-00150",
    "loc": "JO71VI",
    "status": "R",
    "lat": 51.35527777777778,
    "lon": 15.804955555555557
  },
  {
    "id": "DBE05",
    "name": "Trzebień",
    "id2": "SP-00151",
    "loc": "JO71TJ",
    "status": "R",
    "lat": 51.386138888888894,
    "lon": 15.596830555555556
  },
  {
    "id": "DBE06",
    "name": "Warta Bolesławiecka",
    "id2": "SP-00152",
    "loc": "JO71TF",
    "status": "R",
    "lat": 51.231663888888896,
    "lon": 15.643072222222223
  },
  {
    "id": "DDZ01",
    "name": "Dzierżoniów I (w mieście)",
    "id2": "SP-00153",
    "loc": "JO80HR",
    "status": "M",
    "lat": 50.729283333333335,
    "lon": 16.64856388888889
  },
  {
    "id": "DDZ02",
    "name": "Dzierżoniów II (na górce)zHomole",
    "id2": "SP-00154",
    "loc": "JO80HR",
    "status": "M",
    "lat": 50.728230555555555,
    "lon": 16.65495277777778
  },
  {
    "id": "DDZ03",
    "name": "Gola Dzierżoniowska",
    "id2": "SP-00155",
    "loc": "JO80JR",
    "status": "Z",
    "lat": 50.737975,
    "lon": 16.794330555555558
  },
  {
    "id": "DDZ04",
    "name": "Niemcza",
    "id2": "SP-00156",
    "loc": "JO80KR",
    "status": "Z",
    "lat": 50.719094444444444,
    "lon": 16.835202777777774
  },
  {
    "id": "DDZ05",
    "name": "Owiesno",
    "id2": "SP-00157",
    "loc": "JO80IP",
    "status": "R",
    "lat": 50.649144444444445,
    "lon": 16.685847222222225
  },
  {
    "id": "DDZ06",
    "name": "Pieszyce I              z.Rościszów",
    "id2": "SP-00158",
    "loc": "JO80GQ",
    "status": "F",
    "lat": 50.69870555555555,
    "lon": 16.545597222222224
  },
  {
    "id": "DDZ07",
    "name": "Przystronie",
    "id2": "SP-00159",
    "loc": "JO80JS",
    "status": "F",
    "lat": 50.76221388888889,
    "lon": 16.813697222222224
  },
  {
    "id": "DDZ08",
    "name": "Słupice",
    "id2": "SP-00160",
    "loc": "JO80IT",
    "status": "R",
    "lat": 50.80975833333333,
    "lon": 16.744094444444446
  },
  {
    "id": "DDZ09",
    "name": "Stoszów",
    "id2": "SP-00161",
    "loc": "JO80IS",
    "status": "F",
    "lat": 50.782827777777776,
    "lon": 16.724830555555553
  },
  {
    "id": "DDZ10",
    "name": "Ligota Wielka",
    "id2": "SP-00162",
    "loc": "JO80JS",
    "status": "R",
    "lat": 50.757533333333335,
    "lon": 16.78696944444445
  },
  {
    "id": "DDZ11",
    "name": "Wilków Wielki",
    "id2": "SP-00163",
    "loc": "JO80KR",
    "status": "F",
    "lat": 50.749519444444445,
    "lon": 16.846308333333333
  },
  {
    "id": "DDZ12",
    "name": "Sieniawka",
    "id2": "SP-00164",
    "loc": "JO80JS",
    "status": "F",
    "lat": 50.77764166666666,
    "lon": 16.778177777777778
  },
  {
    "id": "DDZ13",
    "name": "Kietlin",
    "id2": "SP-01275",
    "loc": "JO80JR",
    "status": "Z",
    "lat": 50.74611388888889,
    "lon": 16.82936388888889
  },
  {
    "id": "DDZ14",
    "name": "Pieszyce II",
    "id2": "SP-01357",
    "loc": "JO80GR",
    "status": "Z",
    "lat": 50.71586666666667,
    "lon": 16.581663888888887
  },
  {
    "id": "DDZ15",
    "name": "Ostroszowice",
    "id2": "SP-01358",
    "loc": "JO80HP",
    "status": "R",
    "lat": 50.647352777777776,
    "lon": 16.636233333333333
  },
  {
    "id": "DEG01",
    "name": "Legnica",
    "id2": "SP-00165",
    "loc": "JO81BF",
    "status": "Z",
    "lat": 51.21111944444445,
    "lon": 16.162349999999996
  },
  {
    "id": "DGG01",
    "name": "Czerna",
    "id2": "SP-00166",
    "loc": "JO71WR",
    "status": "Z",
    "lat": 51.70915,
    "lon": 15.910386111111112
  },
  {
    "id": "DGG02",
    "name": "Głogów",
    "id2": "SP-00167",
    "loc": "JO81BQ",
    "status": "Z",
    "lat": 51.667275,
    "lon": 16.090438888888887
  },
  {
    "id": "DGG03",
    "name": "Kromolin",
    "id2": "SP-00168",
    "loc": "JO71WQ",
    "status": "M",
    "lat": 51.6839,
    "lon": 15.880291666666666
  },
  {
    "id": "DGG04",
    "name": "Nielubia                        kośc.obr.",
    "id2": "SP-00169",
    "loc": "JO71XP",
    "status": "Z",
    "lat": 51.63984444444444,
    "lon": 15.99588611111111
  },
  {
    "id": "DGG05",
    "name": "Szczepów",
    "id2": "SP-00170",
    "loc": "JO71WQ",
    "status": "F",
    "lat": 51.675016666666664,
    "lon": 15.882147222222223
  },
  {
    "id": "DGG06",
    "name": "Brzeg Głogowski",
    "id2": "SP-00171",
    "loc": "JO71WQ",
    "status": "R",
    "lat": 51.699324999999995,
    "lon": 15.91676111111111
  },
  {
    "id": "DGG07",
    "name": "Glinica",
    "id2": "SP-00172",
    "loc": "JO71XP",
    "status": "R",
    "lat": 51.64887777777778,
    "lon": 15.973986111111111
  },
  {
    "id": "DGG08",
    "name": "Kotla",
    "id2": "SP-01276",
    "loc": "JO81AR",
    "status": "Z",
    "lat": 51.746119444444446,
    "lon": 16.027280555555553
  },
  {
    "id": "DGX01",
    "name": "Czernina Dolna",
    "id2": "SP-00173",
    "loc": "JO81HR",
    "status": "R",
    "lat": 51.72319722222222,
    "lon": 16.601869444444443
  },
  {
    "id": "DGX02",
    "name": "Góra",
    "id2": "SP-00174",
    "loc": "JO81GQ",
    "status": "F",
    "lat": 51.66809166666666,
    "lon": 16.53663611111111
  },
  {
    "id": "DGX03",
    "name": "Ryczeń",
    "id2": "SP-00175",
    "loc": "JO81GO",
    "status": "F",
    "lat": 51.61517222222223,
    "lon": 16.508369444444444
  },
  {
    "id": "DGX04",
    "name": "Wąsosz",
    "id2": "SP-00176",
    "loc": "JO81IN",
    "status": "Z",
    "lat": 51.56184999999999,
    "lon": 16.69362222222222
  },
  {
    "id": "DGX05",
    "name": "Osetno",
    "id2": "SP-00177",
    "loc": "JO81FP",
    "status": "R",
    "lat": 51.63441944444444,
    "lon": 16.460097222222224
  },
  {
    "id": "DID01",
    "name": "Bagieniec",
    "id2": "SP-00178",
    "loc": "JO80FV",
    "status": "R",
    "lat": 50.89016111111111,
    "lon": 16.482338888888886
  },
  {
    "id": "DID02",
    "name": "Bojanice",
    "id2": "SP-00179",
    "loc": "JO80FS",
    "status": "F",
    "lat": 50.7689,
    "lon": 16.47640833333333
  },
  {
    "id": "DID03",
    "name": "Grodziszcze              z.Gramolin",
    "id2": "SP-00180",
    "loc": "JO80GT",
    "status": "M",
    "lat": 50.79727222222222,
    "lon": 16.559886111111112
  },
  {
    "id": "DID04",
    "name": "Kłaczyna",
    "id2": "SP-00181",
    "loc": "JO80CW",
    "status": "R",
    "lat": 50.94100833333333,
    "lon": 16.192030555555558
  },
  {
    "id": "DID05",
    "name": "Krasków k.Goli Świdn.",
    "id2": "SP-00182",
    "loc": "JO80GV",
    "status": "Z",
    "lat": 50.913130555555554,
    "lon": 16.582858333333334
  },
  {
    "id": "DID06",
    "name": "Panków",
    "id2": "SP-00183",
    "loc": "JO80GV",
    "status": "R",
    "lat": 50.89893888888889,
    "lon": 16.527594444444443
  },
  {
    "id": "DID07",
    "name": "Pastuchów",
    "id2": "SP-00184",
    "loc": "JO80FW",
    "status": "Z",
    "lat": 50.947652777777776,
    "lon": 16.439775
  },
  {
    "id": "DID08",
    "name": "Piotrowice Świdnickie",
    "id2": "SP-00185",
    "loc": "JO80FW",
    "status": "Z",
    "lat": 50.93770833333333,
    "lon": 16.45723611111111
  },
  {
    "id": "DID09",
    "name": "Strzegom",
    "id2": "SP-00186",
    "loc": "JO80EX",
    "status": "M",
    "lat": 50.95937777777778,
    "lon": 16.349725
  },
  {
    "id": "DID10",
    "name": "Świdnica",
    "id2": "SP-00187",
    "loc": "JO80FU",
    "status": "F",
    "lat": 50.84377222222223,
    "lon": 16.483552777777778
  },
  {
    "id": "DID11",
    "name": "Świebodzice I",
    "id2": "SP-00188",
    "loc": "JO80DU",
    "status": "M",
    "lat": 50.85926666666667,
    "lon": 16.32208333333333
  },
  {
    "id": "DID12",
    "name": "Świebodzice II",
    "id2": "SP-00189",
    "loc": "JO80DU",
    "status": "M",
    "lat": 50.85980277777778,
    "lon": 16.322247222222224
  },
  {
    "id": "DID13",
    "name": "Wieśnica",
    "id2": "SP-00190",
    "loc": "JO80DX",
    "status": "M",
    "lat": 50.98448888888888,
    "lon": 16.32671388888889
  },
  {
    "id": "DID14",
    "name": "Żarów",
    "id2": "SP-00191",
    "loc": "JO80FW",
    "status": "Z",
    "lat": 50.94479444444444,
    "lon": 16.490019444444446
  },
  {
    "id": "DID15",
    "name": "Gogołów",
    "id2": "SP-00192",
    "loc": "JO80HT",
    "status": "R",
    "lat": 50.829569444444445,
    "lon": 16.587680555555554
  },
  {
    "id": "DID16",
    "name": "Kostrza",
    "id2": "SP-00193",
    "loc": "JO80DP",
    "status": "R",
    "lat": 50.64968888888889,
    "lon": 16.269538888888885
  },
  {
    "id": "DID17",
    "name": "Łażany",
    "id2": "SP-01277",
    "loc": "JO80FX",
    "status": "R",
    "lat": 50.95840833333334,
    "lon": 16.486788888888892
  },
  {
    "id": "DID18",
    "name": "Roztoka",
    "id2": "SP-01359",
    "loc": "JO80CW",
    "status": "Z",
    "lat": 50.95806944444445,
    "lon": 16.22584722222222
  },
  {
    "id": "DID19",
    "name": "Pyszczyn",
    "id2": "SP-01360",
    "loc": "JO80GX",
    "status": "M",
    "lat": 50.986577777777775,
    "lon": 16.536758333333335
  },
  {
    "id": "DID20",
    "name": "Mrowiny",
    "id2": "SP-01361",
    "loc": "JO80GW",
    "status": "Z",
    "lat": 50.94934444444444,
    "lon": 16.524377777777776
  },
  {
    "id": "DJG01",
    "name": "Marczyce                   g.Grodna",
    "id2": "SP-00194",
    "loc": "JO70UU",
    "status": "R",
    "lat": 50.835463888888896,
    "lon": 15.723308333333334
  },
  {
    "id": "DJG02",
    "name": "Janowice Wielkie I      z.Bolczów",
    "id2": "SP-00195",
    "loc": "JO70WU",
    "status": "R",
    "lat": 50.860252777777774,
    "lon": 15.912294444444445
  },
  {
    "id": "DJG03",
    "name": "Karpniki I ",
    "id2": "SP-00196",
    "loc": "JO70WU",
    "status": "Z",
    "lat": 50.846383333333335,
    "lon": 15.850055555555555
  },
  {
    "id": "DJG04",
    "name": "Karpniki II",
    "id2": "SP-00197",
    "loc": "JO70WU",
    "status": "M",
    "lat": 50.85236388888889,
    "lon": 15.84902777777778
  },
  {
    "id": "DJG05",
    "name": "Kowary I                      kośc.obr.",
    "id2": "SP-00198",
    "loc": "JO70VT",
    "status": "F",
    "lat": 50.79537777777778,
    "lon": 15.832383333333334
  },
  {
    "id": "DJG06",
    "name": "Miedzianka",
    "id2": "SP-00199",
    "loc": "JO70XV",
    "status": "F",
    "lat": 50.88410277777778,
    "lon": 15.9355
  },
  {
    "id": "DJG07",
    "name": "Rybnica",
    "id2": "SP-00200",
    "loc": "JO70TV",
    "status": "R",
    "lat": 50.91180277777777,
    "lon": 15.61918611111111
  },
  {
    "id": "DJG08",
    "name": "Siedlęcin",
    "id2": "SP-00201",
    "loc": "JO70UW",
    "status": "Z",
    "lat": 50.93505277777777,
    "lon": 15.685644444444446
  },
  {
    "id": "DJG09",
    "name": "Janowice Wielkie II      z.Sokolec",
    "id2": "SP-00202",
    "loc": "JO70WU",
    "status": "R",
    "lat": 50.86380833333333,
    "lon": 15.868472222222223
  },
  {
    "id": "DJG10",
    "name": "Stara Kamienica",
    "id2": "SP-00203",
    "loc": "JO70SW",
    "status": "R",
    "lat": 50.91856111111111,
    "lon": 15.570538888888889
  },
  {
    "id": "DJG11",
    "name": "Wojanów ",
    "id2": "SP-00204",
    "loc": "JO70VV",
    "status": "Z",
    "lat": 50.87521944444445,
    "lon": 15.813808333333334
  },
  {
    "id": "DJG12",
    "name": "Wojanów-Bobrów ",
    "id2": "SP-00205",
    "loc": "JO70WV",
    "status": "R",
    "lat": 50.88719444444445,
    "lon": 15.830638888888888
  },
  {
    "id": "DJG13",
    "name": "Dziwiszów ",
    "id2": "SP-00206",
    "loc": "JO70VW",
    "status": "M",
    "lat": 50.94030833333333,
    "lon": 15.792713888888889
  },
  {
    "id": "DJG14",
    "name": "Mysłakowice",
    "id2": "SP-00207",
    "loc": "JO70VU",
    "status": "M",
    "lat": 50.84471944444445,
    "lon": 15.779658333333334
  },
  {
    "id": "DJG15",
    "name": "Dąbrowica",
    "id2": "SP-00208",
    "loc": "JO70VV",
    "status": "M",
    "lat": 50.89631111111111,
    "lon": 15.807080555555556
  },
  {
    "id": "DJG16",
    "name": "Bukowiec",
    "id2": "SP-00209",
    "loc": "JO70VT",
    "status": "Z",
    "lat": 50.82429444444445,
    "lon": 15.8148
  },
  {
    "id": "DJG17",
    "name": "Czernica",
    "id2": "SP-00210",
    "loc": "JO70UX",
    "status": "F",
    "lat": 50.97824444444444,
    "lon": 15.72
  },
  {
    "id": "DJG18",
    "name": "Kowary II  ",
    "id2": "SP-01362",
    "loc": "JO70WT",
    "status": "F",
    "lat": 50.803127777777775,
    "lon": 15.834827777777777
  },
  {
    "id": "DJG19",
    "name": "Chrośnica",
    "id2": "SP-01363",
    "loc": "JO70VX",
    "status": "Z",
    "lat": 50.98053055555555,
    "lon": 15.787394444444445
  },
  {
    "id": "DJM01",
    "name": "Jel. Góra I       g.B.Krzywoustego",
    "id2": "SP-00211",
    "loc": "JO70UV",
    "status": "R",
    "lat": 50.90863888888889,
    "lon": 15.724405555555556
  },
  {
    "id": "DJM02",
    "name": "Jel. Góra II   Sobieszów z.Chojnik",
    "id2": "SP-00212",
    "loc": "JO70TU",
    "status": "R",
    "lat": 50.83375,
    "lon": 15.644163888888889
  },
  {
    "id": "DJM03",
    "name": "Jel. Góra III                     Czarne",
    "id2": "SP-00213",
    "loc": "JO70UV",
    "status": "Z",
    "lat": 50.87962777777778,
    "lon": 15.746572222222222
  },
  {
    "id": "DJM04",
    "name": "Jel. Góra IV               Maciejowa",
    "id2": "SP-00214",
    "loc": "JO70WV",
    "status": "R",
    "lat": 50.90745277777778,
    "lon": 15.840786111111111
  },
  {
    "id": "DJR01",
    "name": "Bolków",
    "id2": "SP-00215",
    "loc": "JO80BW",
    "status": "Z",
    "lat": 50.92146944444444,
    "lon": 16.097755555555555
  },
  {
    "id": "DJR02",
    "name": "Jawor",
    "id2": "SP-00216",
    "loc": "JO81CB",
    "status": "R",
    "lat": 51.049886111111114,
    "lon": 16.190733333333334
  },
  {
    "id": "DJR03",
    "name": "Lipa",
    "id2": "SP-00217",
    "loc": "JO80AX",
    "status": "R",
    "lat": 50.96816388888889,
    "lon": 16.01671111111111
  },
  {
    "id": "DJR04",
    "name": "Myślibórz",
    "id2": "SP-00218",
    "loc": "JO81BA",
    "status": "M",
    "lat": 51.021883333333335,
    "lon": 16.125958333333333
  },
  {
    "id": "DJR05",
    "name": "Płonina I                   z. Niesytno",
    "id2": "SP-00219",
    "loc": "JO70XV",
    "status": "R",
    "lat": 50.904019444444444,
    "lon": 16.003955555555553
  },
  {
    "id": "DJR06",
    "name": "Rataj (na górze) k.Paszowic",
    "id2": "SP-00220",
    "loc": "JO81BA",
    "status": "M",
    "lat": 51.02194166666667,
    "lon": 16.125408333333333
  },
  {
    "id": "DJR07",
    "name": "Świny",
    "id2": "SP-00221",
    "loc": "JO80BW",
    "status": "R",
    "lat": 50.938736111111105,
    "lon": 16.112586111111113
  },
  {
    "id": "DJR08",
    "name": "Wiadrów",
    "id2": "SP-00222",
    "loc": "JO80CX",
    "status": "F",
    "lat": 50.97973611111111,
    "lon": 16.18293888888889
  },
  {
    "id": "DJR09",
    "name": "Luboradz",
    "id2": "SP-00223",
    "loc": "JO81DB",
    "status": "F",
    "lat": 51.05759444444444,
    "lon": 16.290322222222223
  },
  {
    "id": "DJR10",
    "name": "Snowidza",
    "id2": "SP-00224",
    "loc": "JO81DC",
    "status": "F",
    "lat": 51.08475277777778,
    "lon": 16.254419444444444
  },
  {
    "id": "DJR11",
    "name": "Siedmica",
    "id2": "SP-00225",
    "loc": "JO80BX",
    "status": "R",
    "lat": 50.99601666666667,
    "lon": 16.08903611111111
  },
  {
    "id": "DJR12",
    "name": "Płonina II",
    "id2": "SP-00226",
    "loc": "JO80AV",
    "status": "R",
    "lat": 50.904250000000005,
    "lon": 16.005502777777778
  },
  {
    "id": "DJR13",
    "name": "Mierczyce",
    "id2": "SP-01278",
    "loc": "JO81DC",
    "status": "Z",
    "lat": 51.09218333333333,
    "lon": 16.313744444444445
  },
  {
    "id": "DJR14",
    "name": "Kaczorów",
    "id2": "SP-01364",
    "loc": "JO70XV",
    "status": "F",
    "lat": 50.909127777777776,
    "lon": 15.956958333333333
  },
  {
    "id": "DJR15",
    "name": "Grobla",
    "id2": "SP-01479",
    "loc": "JO80BX",
    "status": "Z",
    "lat": 50.98311666666667,
    "lon": 16.114044444444446
  },
  {
    "id": "DKQ01",
    "name": "Chełmsko Śląskie",
    "id2": "SP-00227",
    "loc": "JO80AQ",
    "status": "M",
    "lat": 50.6683,
    "lon": 16.06908888888889
  },
  {
    "id": "DKQ02",
    "name": "Kamienna Góra I        z.Grodztwo",
    "id2": "SP-00228",
    "loc": "JO80AS",
    "status": "R",
    "lat": 50.790819444444445,
    "lon": 16.036183333333334
  },
  {
    "id": "DKQ03",
    "name": "Kamienna Góra II           z.Straża",
    "id2": "SP-00229",
    "loc": "JO80AS",
    "status": "M",
    "lat": 50.783908333333336,
    "lon": 16.038322222222227
  },
  {
    "id": "DKQ04",
    "name": "Lubawka",
    "id2": "SP-00230",
    "loc": "JO80AQ",
    "status": "F",
    "lat": 50.70701666666667,
    "lon": 16.00055
  },
  {
    "id": "DKQ05",
    "name": "Szarocin",
    "id2": "SP-00231",
    "loc": "JO70XS",
    "status": "M",
    "lat": 50.76130833333333,
    "lon": 15.936686111111111
  },
  {
    "id": "DKQ06",
    "name": "Ciechanowice",
    "id2": "SP-00232",
    "loc": "JO70XU",
    "status": "M",
    "lat": 50.86799444444444,
    "lon": 15.976411111111112
  },
  {
    "id": "DKQ07",
    "name": "Miszkowice",
    "id2": "SP-00233",
    "loc": "JO70WR",
    "status": "M",
    "lat": 50.719025,
    "lon": 15.915930555555557
  },
  {
    "id": "DKV01",
    "name": "Czerwieńczyce",
    "id2": "SP-00234",
    "loc": "JO80HM",
    "status": "R",
    "lat": 50.52206111111111,
    "lon": 16.60040277777778
  },
  {
    "id": "DKV02",
    "name": "Gniewoszów             z.Szczerba",
    "id2": "SP-00235",
    "loc": "JO80HE",
    "status": "R",
    "lat": 50.19429999999999,
    "lon": 16.620425
  },
  {
    "id": "DKV03",
    "name": "Gorzanów I ",
    "id2": "SP-00236",
    "loc": "JO80HI",
    "status": "Z",
    "lat": 50.35096111111111,
    "lon": 16.633458333333333
  },
  {
    "id": "DKV04",
    "name": "Ludowe                       z.Homole",
    "id2": "SP-00237",
    "loc": "JO80EJ",
    "status": "R",
    "lat": 50.40159722222222,
    "lon": 16.346319444444443
  },
  {
    "id": "DKV05",
    "name": "Karpno                        z.Karpień",
    "id2": "SP-00238",
    "loc": "JO80LH",
    "status": "R",
    "lat": 50.330961111111115,
    "lon": 16.923544444444445
  },
  {
    "id": "DKV06",
    "name": "Kłodzko",
    "id2": "SP-00239",
    "loc": "JO80HK",
    "status": "M",
    "lat": 50.44118333333333,
    "lon": 16.653366666666667
  },
  {
    "id": "DKV07",
    "name": "Konradów                z.Wojaczów",
    "id2": "SP-00240",
    "loc": "JO80BR",
    "status": "M",
    "lat": 50.73855833333334,
    "lon": 16.147336111111112
  },
  {
    "id": "DKV08",
    "name": "Lewin Kłodzki",
    "id2": "SP-00241",
    "loc": "JO80DJ",
    "status": "M",
    "lat": 50.41084166666666,
    "lon": 16.286105555555558
  },
  {
    "id": "DKV09",
    "name": "Międzylesie",
    "id2": "SP-00242",
    "loc": "JO80HD",
    "status": "F",
    "lat": 50.14834444444445,
    "lon": 16.6662
  },
  {
    "id": "DKV10",
    "name": "Nowa Ruda",
    "id2": "SP-00243",
    "loc": "JO80GN",
    "status": "M",
    "lat": 50.57970277777778,
    "lon": 16.500108333333333
  },
  {
    "id": "DKV11",
    "name": "Podzamek",
    "id2": "SP-00244",
    "loc": "JO80IK",
    "status": "Z",
    "lat": 50.43183888888889,
    "lon": 16.733619444444447
  },
  {
    "id": "DKV12",
    "name": "Radków                       z.Hradek",
    "id2": "SP-00245",
    "loc": "JO80EM",
    "status": "M",
    "lat": 50.50403055555555,
    "lon": 16.401505555555556
  },
  {
    "id": "DKV13",
    "name": "Ratno Dolne",
    "id2": "SP-00246",
    "loc": "JO80FM",
    "status": "R",
    "lat": 50.505966666666666,
    "lon": 16.455019444444442
  },
  {
    "id": "DKV14",
    "name": "Stara Łomnica",
    "id2": "SP-00247",
    "loc": "JO80GI",
    "status": "R",
    "lat": 50.35207777777778,
    "lon": 16.580455555555556
  },
  {
    "id": "DKV15",
    "name": "Szczytna                      z.Leśna",
    "id2": "SP-00248",
    "loc": "JO80FJ",
    "status": "Z",
    "lat": 50.412327777777776,
    "lon": 16.457519444444443
  },
  {
    "id": "DKV16",
    "name": "Wolibórz",
    "id2": "SP-00249",
    "loc": "JO80GO",
    "status": "M",
    "lat": 50.59187777777778,
    "lon": 16.58106666666667
  },
  {
    "id": "DKV17",
    "name": "Żelazno",
    "id2": "SP-00250",
    "loc": "JO80II",
    "status": "Z",
    "lat": 50.370558333333335,
    "lon": 16.673108333333335
  },
  {
    "id": "DKV18",
    "name": "Ołdrzychowice Kłodzkie",
    "id2": "SP-00251",
    "loc": "JO80II",
    "status": "R",
    "lat": 50.35801111111111,
    "lon": 16.724913888888885
  },
  {
    "id": "DKV19",
    "name": "Trzebieszowice",
    "id2": "SP-00252",
    "loc": "JO80JI",
    "status": "F",
    "lat": 50.34808055555556,
    "lon": 16.779999999999998
  },
  {
    "id": "DKV20",
    "name": "Bystrzyca Kłodzka",
    "id2": "SP-00253",
    "loc": "JO80HH",
    "status": "F",
    "lat": 50.29598055555556,
    "lon": 16.653019444444443
  },
  {
    "id": "DKV21",
    "name": "Ścinawka Górna",
    "id2": "SP-00254",
    "loc": "JO80FN",
    "status": "Z",
    "lat": 50.54626666666667,
    "lon": 16.462491666666665
  },
  {
    "id": "DKV22",
    "name": "Ścinawka Średnia I z.Kapitanowo",
    "id2": "SP-00255",
    "loc": "JO80FM",
    "status": "Z",
    "lat": 50.52535555555555,
    "lon": 16.483808333333336
  },
  {
    "id": "DKV23",
    "name": "Ścinawka Dolna",
    "id2": "SP-00256",
    "loc": "JO80GM",
    "status": "F",
    "lat": 50.503905555555555,
    "lon": 16.51211388888889
  },
  {
    "id": "DKV24",
    "name": "Jaszkowa Górna",
    "id2": "SP-00257",
    "loc": "JO80IJ",
    "status": "F",
    "lat": 50.408252777777776,
    "lon": 16.735541666666666
  },
  {
    "id": "DKV25",
    "name": "Idzików",
    "id2": "SP-00258",
    "loc": "JO80IG",
    "status": "R",
    "lat": 50.271816666666666,
    "lon": 16.714858333333332
  },
  {
    "id": "DKV26",
    "name": "Niemojów",
    "id2": "SP-00259",
    "loc": "JO80GD",
    "status": "R",
    "lat": 50.165705555555554,
    "lon": 16.5618
  },
  {
    "id": "DKV27",
    "name": "Stary Waliszów",
    "id2": "SP-00260",
    "loc": "JO80IH",
    "status": "M",
    "lat": 50.32214444444445,
    "lon": 16.684597222222223
  },
  {
    "id": "DKV28",
    "name": "Szalejów Górny",
    "id2": "SP-01279",
    "loc": "JO80GK",
    "status": "F",
    "lat": 50.427816666666665,
    "lon": 16.5452
  },
  {
    "id": "DKV29",
    "name": "Ponikwa",
    "id2": "SP-01280",
    "loc": "JO80HG",
    "status": "M",
    "lat": 50.252763888888886,
    "lon": 16.607038888888887
  },
  {
    "id": "DKV30",
    "name": "Wilkanów",
    "id2": "SP-01281",
    "loc": "JO80IF",
    "status": "M",
    "lat": 50.24701666666667,
    "lon": 16.691947222222222
  },
  {
    "id": "DKV31",
    "name": "Przygórze          z.Quingenburg",
    "id2": "SP-01365",
    "loc": "JO80GO",
    "status": "R",
    "lat": 50.612811111111114,
    "lon": 16.568261111111113
  },
  {
    "id": "DKV32",
    "name": "Gorzanów II",
    "id2": "SP-01366",
    "loc": "JO80HI",
    "status": "M",
    "lat": 50.352272222222226,
    "lon": 16.632380555555557
  },
  {
    "id": "DKV33",
    "name": "Ścinawka Średnia II",
    "id2": "SP-01367",
    "loc": "JO80FM",
    "status": "Z",
    "lat": 50.51326944444444,
    "lon": 16.503580555555555
  },
  {
    "id": "DLF01",
    "name": "Gryfów Śląski",
    "id2": "SP-00261",
    "loc": "JO71QA",
    "status": "M",
    "lat": 51.02696666666667,
    "lon": 15.415344444444445
  },
  {
    "id": "DLF02",
    "name": "Lwówek Śląski",
    "id2": "SP-00262",
    "loc": "JO71TC",
    "status": "M",
    "lat": 51.10904166666667,
    "lon": 15.585133333333335
  },
  {
    "id": "DLF03",
    "name": "Płakowice",
    "id2": "SP-00263",
    "loc": "JO71TC",
    "status": "Z",
    "lat": 51.11583888888889,
    "lon": 15.61463611111111
  },
  {
    "id": "DLF04",
    "name": "Proszówka                       z.Gryf",
    "id2": "SP-00264",
    "loc": "JO70RX",
    "status": "R",
    "lat": 50.992605555555556,
    "lon": 15.421266666666666
  },
  {
    "id": "DLF05",
    "name": "Radłówka",
    "id2": "SP-00265",
    "loc": "JO71SC",
    "status": "R",
    "lat": 51.122213888888886,
    "lon": 15.546516666666665
  },
  {
    "id": "DLF06",
    "name": "Rakowice Wlk.I  (wieża książęca)",
    "id2": "SP-00266",
    "loc": "JO71SD",
    "status": "R",
    "lat": 51.13256944444444,
    "lon": 15.563072222222223
  },
  {
    "id": "DLF07",
    "name": "Rakowice Wlk.II  (wieża miejska)",
    "id2": "SP-00267",
    "loc": "JO71SD",
    "status": "R",
    "lat": 51.12793888888889,
    "lon": 15.568988888888889
  },
  {
    "id": "DLF08",
    "name": "Rząsiny                   z.Podskale",
    "id2": "SP-00268",
    "loc": "JO71RC",
    "status": "R",
    "lat": 51.083325,
    "lon": 15.461116666666666
  },
  {
    "id": "DLF09",
    "name": "Skała                       z.Hohlstein",
    "id2": "SP-00269",
    "loc": "JO71TD",
    "status": "R",
    "lat": 51.158719444444436,
    "lon": 15.591508333333334
  },
  {
    "id": "DLF10",
    "name": "Wleń - Łupki",
    "id2": "SP-00270",
    "loc": "JO71TA",
    "status": "R",
    "lat": 51.017519444444446,
    "lon": 15.662819444444445
  },
  {
    "id": "DLF11",
    "name": "Gradówek                  z.Pirszyn",
    "id2": "SP-00271",
    "loc": "JO71RC",
    "status": "M",
    "lat": 51.08951388888889,
    "lon": 15.489747222222222
  },
  {
    "id": "DLF12",
    "name": "Marczów                 Babi Gródek",
    "id2": "SP-00272",
    "loc": "JO71TB",
    "status": "F",
    "lat": 51.05780833333333,
    "lon": 15.648827777777777
  },
  {
    "id": "DLF13",
    "name": "Niwnice                       dwór obr.",
    "id2": "SP-01282",
    "loc": "JO71RD",
    "status": "R",
    "lat": 51.13366111111111,
    "lon": 15.498680555555554
  },
  {
    "id": "DLG01",
    "name": "Chojnów",
    "id2": "SP-00273",
    "loc": "JO71XG",
    "status": "Z",
    "lat": 51.27065277777778,
    "lon": 15.92932222222222
  },
  {
    "id": "DLG02",
    "name": "Warmątowice Sienkiewiczowskie",
    "id2": "SP-00274",
    "loc": "JO81BD",
    "status": "F",
    "lat": 51.131488888888896,
    "lon": 16.1314
  },
  {
    "id": "DLG03",
    "name": "Prochowice",
    "id2": "SP-00275",
    "loc": "JO81EG",
    "status": "R",
    "lat": 51.275172222222224,
    "lon": 16.360702777777778
  },
  {
    "id": "DLG04",
    "name": "Rokitki I",
    "id2": "SP-01368",
    "loc": "JO71WI",
    "status": "F",
    "lat": 51.336925,
    "lon": 15.87293611111111
  },
  {
    "id": "DLG05",
    "name": "Rokitki II",
    "id2": "SP-01369",
    "loc": "JO71WI",
    "status": "M",
    "lat": 51.345847222222226,
    "lon": 15.888238888888889
  },
  {
    "id": "DLH01",
    "name": "Czocha",
    "id2": "SP-00276",
    "loc": "JO71PA",
    "status": "Z",
    "lat": 51.030608333333326,
    "lon": 15.303477777777779
  },
  {
    "id": "DLH02",
    "name": "Leśna",
    "id2": "SP-00277",
    "loc": "JO71PA",
    "status": "M",
    "lat": 51.02551111111111,
    "lon": 15.260755555555555
  },
  {
    "id": "DLH03",
    "name": "Mściszów",
    "id2": "SP-00278",
    "loc": "JO71RD",
    "status": "R",
    "lat": 51.144927777777774,
    "lon": 15.42028611111111
  },
  {
    "id": "DLH04",
    "name": "Świecie",
    "id2": "SP-00279",
    "loc": "JO70PX",
    "status": "R",
    "lat": 50.99696111111111,
    "lon": 15.28471388888889
  },
  {
    "id": "DLH05",
    "name": "Zamczysko                  z.Rajsko",
    "id2": "SP-00280",
    "loc": "JO71PA",
    "status": "R",
    "lat": 51.033811111111106,
    "lon": 15.33223888888889
  },
  {
    "id": "DLH06",
    "name": "Biedrzychowice",
    "id2": "SP-01283",
    "loc": "JO71QA",
    "status": "Z",
    "lat": 51.02696666666667,
    "lon": 15.415344444444445
  },
  {
    "id": "DML01",
    "name": "Cieszków  ",
    "id2": "SP-00281",
    "loc": "JO81QP",
    "status": "F",
    "lat": 51.627233333333336,
    "lon": 17.356958333333335
  },
  {
    "id": "DML02",
    "name": "Milicz",
    "id2": "SP-00282",
    "loc": "JO81PM",
    "status": "R",
    "lat": 51.531641666666665,
    "lon": 17.268602777777776
  },
  {
    "id": "DML03",
    "name": "Sułów",
    "id2": "SP-00283",
    "loc": "JO81OL",
    "status": "M",
    "lat": 51.493975,
    "lon": 17.17001666666667
  },
  {
    "id": "DOA01",
    "name": "Jelcz - Laskowice I",
    "id2": "SP-00284",
    "loc": "JO81QA",
    "status": "R",
    "lat": 51.040863888888886,
    "lon": 17.34999722222222
  },
  {
    "id": "DOA02",
    "name": "Oława",
    "id2": "SP-00285",
    "loc": "JO80PW",
    "status": "Z",
    "lat": 50.94484166666666,
    "lon": 17.294311111111114
  },
  {
    "id": "DOA03",
    "name": "Oleśnica Mała",
    "id2": "SP-00286",
    "loc": "JO80PU",
    "status": "Z",
    "lat": 50.843808333333335,
    "lon": 17.27327222222222
  },
  {
    "id": "DOA04",
    "name": "Jelcz-Laskowice II",
    "id2": "SP-01370",
    "loc": "JO81PA",
    "status": "R",
    "lat": 51.01634722222222,
    "lon": 17.308405555555556
  },
  {
    "id": "DOE01",
    "name": "Bierutów",
    "id2": "SP-00287",
    "loc": "JO81SC",
    "status": "Z",
    "lat": 51.12399444444445,
    "lon": 17.54500277777778
  },
  {
    "id": "DOE02",
    "name": "Dobroszyce",
    "id2": "SP-00288",
    "loc": "JO81QG",
    "status": "Z",
    "lat": 51.26718611111111,
    "lon": 17.337130555555557
  },
  {
    "id": "DOE03",
    "name": "Międzybórz Sycowski",
    "id2": "SP-00289",
    "loc": "JO81TJ",
    "status": "M",
    "lat": 51.39796666666666,
    "lon": 17.665255555555554
  },
  {
    "id": "DOE04",
    "name": "Oleśnica",
    "id2": "SP-00290",
    "loc": "JO81QF",
    "status": "Z",
    "lat": 51.20905555555556,
    "lon": 17.376275
  },
  {
    "id": "DOE05",
    "name": "Syców I                     z.Książęcy",
    "id2": "SP-00291",
    "loc": "JO81UH",
    "status": "M",
    "lat": 51.30573333333333,
    "lon": 17.71967222222222
  },
  {
    "id": "DOE06",
    "name": "Syców II                         z.Nowy",
    "id2": "SP-00292",
    "loc": "JO81UH",
    "status": "M",
    "lat": 51.306733333333334,
    "lon": 17.718644444444443
  },
  {
    "id": "DOE07",
    "name": "Twardogóra",
    "id2": "SP-00293",
    "loc": "JO81RI",
    "status": "F",
    "lat": 51.36624722222222,
    "lon": 17.467477777777773
  },
  {
    "id": "DOE08",
    "name": "Dobra",
    "id2": "SP-00294",
    "loc": "JO81TF",
    "status": "Z",
    "lat": 51.24969722222222,
    "lon": 17.310319444444445
  },
  {
    "id": "DOE09",
    "name": "Bukowinka",
    "id2": "SP-01490",
    "loc": "JO81QI",
    "status": "R",
    "lat": 51.35944444444445,
    "lon": 17.34853888888889
  },
  {
    "id": "DPP01",
    "name": "Chocianowiec",
    "id2": "SP-00295",
    "loc": "JO71XJ",
    "status": "R",
    "lat": 51.39043611111111,
    "lon": 15.945897222222222
  },
  {
    "id": "DPP02",
    "name": "Chocianów",
    "id2": "SP-00296",
    "loc": "JO71WK",
    "status": "R",
    "lat": 51.41800277777777,
    "lon": 15.896641666666666
  },
  {
    "id": "DPP03",
    "name": "Grębocice",
    "id2": "SP-00297",
    "loc": "JO81BO",
    "status": "R",
    "lat": 51.59874722222222,
    "lon": 16.164088888888887
  },
  {
    "id": "DPP04",
    "name": "Dalków",
    "id2": "SP-00298",
    "loc": "JO71WP",
    "status": "R",
    "lat": 51.663691666666665,
    "lon": 15.893925
  },
  {
    "id": "DPP05",
    "name": "Jędrzychów  (Włoszczów)",
    "id2": "SP-00299",
    "loc": "JO81AK",
    "status": "R",
    "lat": 51.45753055555556,
    "lon": 16.02866388888889
  },
  {
    "id": "DPP06",
    "name": "Przemków I                zam.myśl.",
    "id2": "SP-00300",
    "loc": "JO71VM",
    "status": "M",
    "lat": 51.526774999999994,
    "lon": 15.782580555555557
  },
  {
    "id": "DPP07",
    "name": "Przemków II               zam.książ.",
    "id2": "SP-00301",
    "loc": "JO71VM",
    "status": "F",
    "lat": 51.52764166666666,
    "lon": 15.783719444444444
  },
  {
    "id": "DPP08",
    "name": "Jakubów",
    "id2": "SP-00302",
    "loc": "JO71XO",
    "status": "R",
    "lat": 51.60648333333333,
    "lon": 15.999225
  },
  {
    "id": "DPP09",
    "name": "Grodziszcze",
    "id2": "SP-01288",
    "loc": "JO81CN",
    "status": "R",
    "lat": 51.55157222222222,
    "lon": 16.202550000000002
  },
  {
    "id": "DPP10",
    "name": "Krzydłowice",
    "id2": "SP-01284",
    "loc": "JO81CN",
    "status": "M",
    "lat": 51.54353333333333,
    "lon": 16.229633333333332
  },
  {
    "id": "DSS01",
    "name": "Brzezina",
    "id2": "SP-00303",
    "loc": "JO81KE",
    "status": "R",
    "lat": 51.2030138888889,
    "lon": 16.833447222222222
  },
  {
    "id": "DSS02",
    "name": "Środa Śląska",
    "id2": "SP-00304",
    "loc": "JO81HD",
    "status": "M",
    "lat": 51.165711111111115,
    "lon": 16.590852777777776
  },
  {
    "id": "DSS03",
    "name": "Wojnowice",
    "id2": "SP-00305",
    "loc": "JO81JE",
    "status": "Z",
    "lat": 51.197738888888885,
    "lon": 16.795208333333335
  },
  {
    "id": "DSS04",
    "name": "Pielaszkowice",
    "id2": "SP-00306",
    "loc": "JO81GB",
    "status": "R",
    "lat": 51.04719166666666,
    "lon": 16.514855555555556
  },
  {
    "id": "DSS05",
    "name": "Źródła                       kościół obr.",
    "id2": "SP-00307",
    "loc": "JO81ID",
    "status": "Z",
    "lat": 51.158719444444436,
    "lon": 16.723152777777777
  },
  {
    "id": "DSS06",
    "name": "Kwietno",
    "id2": "SP-00308",
    "loc": "JO81FE",
    "status": "Z",
    "lat": 51.172644444444444,
    "lon": 16.467019444444443
  },
  {
    "id": "DSV01",
    "name": "Borów ",
    "id2": "SP-00309",
    "loc": "JO80LV",
    "status": "R",
    "lat": 50.88453055555555,
    "lon": 16.983447222222225
  },
  {
    "id": "DSV02",
    "name": "Krasiewice          z.na g.Gromnik",
    "id2": "SP-00310",
    "loc": "JO80NQ",
    "status": "R",
    "lat": 50.702358333333336,
    "lon": 17.11003888888889
  },
  {
    "id": "DSV03",
    "name": "Nieszkowice",
    "id2": "SP-00311",
    "loc": "JO80LQ",
    "status": "R",
    "lat": 50.70472222222222,
    "lon": 16.974999999999998
  },
  {
    "id": "DSV04",
    "name": "Prusy I ",
    "id2": "SP-00312",
    "loc": "JO80LS",
    "status": "R",
    "lat": 50.758275000000005,
    "lon": 16.931433333333334
  },
  {
    "id": "DSV05",
    "name": "Przeworno",
    "id2": "SP-00313",
    "loc": "JO80OQ",
    "status": "Z",
    "lat": 50.68464166666666,
    "lon": 17.17276111111111
  },
  {
    "id": "DSV06",
    "name": "Siemisławice",
    "id2": "SP-00314",
    "loc": "JO80NQ",
    "status": "Z",
    "lat": 50.68770277777778,
    "lon": 17.146316666666667
  },
  {
    "id": "DSV07",
    "name": "Prusy II         (dawn.Stare Prusy)",
    "id2": "SP-00315",
    "loc": "JO80LS",
    "status": "F",
    "lat": 50.758538888888886,
    "lon": 16.93209444444445
  },
  {
    "id": "DSV08",
    "name": "Strzelin",
    "id2": "SP-00316",
    "loc": "JO80MS",
    "status": "R",
    "lat": 50.779691666666665,
    "lon": 17.074158333333333
  },
  {
    "id": "DSV09",
    "name": "Warkocz",
    "id2": "SP-00317",
    "loc": "JO80MT",
    "status": "M",
    "lat": 50.82087500000001,
    "lon": 17.04248055555556
  },
  {
    "id": "DTR01",
    "name": "Prusice I",
    "id2": "SP-00318",
    "loc": "JO81LI",
    "status": "F",
    "lat": 51.36501388888889,
    "lon": 16.96312777777778
  },
  {
    "id": "DTR02",
    "name": "Trzebnica",
    "id2": "SP-00319",
    "loc": "JO81MH",
    "status": "M",
    "lat": 51.3077,
    "lon": 17.054983333333336
  },
  {
    "id": "DTR03",
    "name": "Uraz",
    "id2": "SP-00320",
    "loc": "JO81KF",
    "status": "R",
    "lat": 51.242897222222226,
    "lon": 16.85266388888889
  },
  {
    "id": "DTR04",
    "name": "Żmigród                z.Trachenberg",
    "id2": "SP-00321",
    "loc": "JO81KL",
    "status": "R",
    "lat": 51.48242777777778,
    "lon": 16.91656111111111
  },
  {
    "id": "DTR05",
    "name": "Bagno",
    "id2": "SP-00322",
    "loc": "JO81JI",
    "status": "F",
    "lat": 51.33695555555556,
    "lon": 16.817391666666666
  },
  {
    "id": "DTR06",
    "name": "Prusice II",
    "id2": "SP-00323",
    "loc": "JO81LI",
    "status": "M",
    "lat": 51.37083333333334,
    "lon": 16.96224722222222
  },
  {
    "id": "DUN01",
    "name": "Chobienia",
    "id2": "SP-00324",
    "loc": "JO81FN",
    "status": "R",
    "lat": 51.54333611111111,
    "lon": 16.44676111111111
  },
  {
    "id": "DUN02",
    "name": "Lubin",
    "id2": "SP-00325",
    "loc": "JO81CJ",
    "status": "F",
    "lat": 51.39637222222222,
    "lon": 16.208080555555554
  },
  {
    "id": "DUN03",
    "name": "Rudna",
    "id2": "SP-00326",
    "loc": "JO81DM",
    "status": "M",
    "lat": 51.50926388888889,
    "lon": 16.261994444444447
  },
  {
    "id": "DUN04",
    "name": "Ścinawa",
    "id2": "SP-00327",
    "loc": "JO81FJ",
    "status": "M",
    "lat": 51.41616944444444,
    "lon": 16.428158333333332
  },
  {
    "id": "DUN05",
    "name": "Dziewin",
    "id2": "SP-00328",
    "loc": "JO81FI",
    "status": "R",
    "lat": 51.37242777777777,
    "lon": 16.459005555555557
  },
  {
    "id": "DUN06",
    "name": "Chróstnik",
    "id2": "SP-00329",
    "loc": "JO81BI",
    "status": "R",
    "lat": 51.356322222222225,
    "lon": 16.156252777777777
  },
  {
    "id": "DUN07",
    "name": "Szklary Górne",
    "id2": "SP-00330",
    "loc": "JO81BK",
    "status": "F",
    "lat": 51.44087222222222,
    "lon": 16.092230555555556
  },
  {
    "id": "DWQ01",
    "name": "Wołów",
    "id2": "SP-00331",
    "loc": "JO81HI",
    "status": "Z",
    "lat": 51.33521388888889,
    "lon": 16.649425
  },
  {
    "id": "DWQ02",
    "name": "Mojęcice",
    "id2": "SP-00332",
    "loc": "JO81HH",
    "status": "F",
    "lat": 51.30134999999999,
    "lon": 16.595677777777777
  },
  {
    "id": "DWQ03",
    "name": "Lubiąż",
    "id2": "SP-00333",
    "loc": "JO81FG",
    "status": "Z",
    "lat": 51.261494444444445,
    "lon": 16.469447222222218
  },
  {
    "id": "DWR01",
    "name": "Biestrzyków",
    "id2": "SP-00334",
    "loc": "JO81MA",
    "status": "R",
    "lat": 51.03248055555556,
    "lon": 17.040255555555557
  },
  {
    "id": "DWR02",
    "name": "Borzygniew",
    "id2": "SP-00335",
    "loc": "JO80HX",
    "status": "R",
    "lat": 50.97342777777778,
    "lon": 16.63201666666667
  },
  {
    "id": "DWR03",
    "name": "Czernica",
    "id2": "SP-00336",
    "loc": "JO81OB",
    "status": "F",
    "lat": 51.04340555555555,
    "lon": 17.24280277777778
  },
  {
    "id": "DWR04",
    "name": "Domanice",
    "id2": "SP-00337",
    "loc": "JO80HW",
    "status": "Z",
    "lat": 50.943238888888885,
    "lon": 16.585947222222224
  },
  {
    "id": "DWR05",
    "name": "Kąty Wrocławskie",
    "id2": "SP-00338",
    "loc": "JO81JA",
    "status": "M",
    "lat": 51.031622222222225,
    "lon": 16.77308888888889
  },
  {
    "id": "DWR06",
    "name": "Komorowice",
    "id2": "SP-00339",
    "loc": "JO80MA",
    "status": "Z",
    "lat": 51.014041666666664,
    "lon": 17.000466666666668
  },
  {
    "id": "DWR07",
    "name": "Nowiny",
    "id2": "SP-00340",
    "loc": "JO80KX",
    "status": "M",
    "lat": 50.98856111111112,
    "lon": 16.90070833333333
  },
  {
    "id": "DWR08",
    "name": "Rogów Sobócki",
    "id2": "SP-00341",
    "loc": "JO80JW",
    "status": "R",
    "lat": 50.920113888888885,
    "lon": 16.75728611111111
  },
  {
    "id": "DWR09",
    "name": "Smolec",
    "id2": "SP-00342",
    "loc": "JO81KB",
    "status": "R",
    "lat": 51.075655555555564,
    "lon": 16.884375
  },
  {
    "id": "DWR10",
    "name": "Sobótka-Górka",
    "id2": "SP-00343",
    "loc": "JO80IV",
    "status": "Z",
    "lat": 50.88724722222222,
    "lon": 16.707988888888888
  },
  {
    "id": "DWR11",
    "name": "Sobótka                         z.Ślęża",
    "id2": "SP-00344",
    "loc": "JO80IV",
    "status": "R",
    "lat": 50.865094444444445,
    "lon": 16.707919444444446
  },
  {
    "id": "DWR12",
    "name": "Ślęza      ",
    "id2": "SP-00345",
    "loc": "JO81LA",
    "status": "Z",
    "lat": 51.03471666666666,
    "lon": 16.989797222222222
  },
  {
    "id": "DWR13",
    "name": "Krobielowice",
    "id2": "SP-00346",
    "loc": "JO81JA",
    "status": "Z",
    "lat": 51.00695277777778,
    "lon": 16.79828888888889
  },
  {
    "id": "DWR14",
    "name": "Sulistrowice",
    "id2": "SP-00347",
    "loc": "JO80JU",
    "status": "M",
    "lat": 50.8497,
    "lon": 16.75641111111111
  },
  {
    "id": "DWR15",
    "name": "Będkowice",
    "id2": "SP-00348",
    "loc": "JO80JU",
    "status": "Z",
    "lat": 50.86521666666667,
    "lon": 16.75433611111111
  },
  {
    "id": "DWR16",
    "name": "Krzyżowice",
    "id2": "SP-00349",
    "loc": "JO80KX",
    "status": "R",
    "lat": 50.99483611111111,
    "lon": 16.876855555555558
  },
  {
    "id": "DWR17",
    "name": "Wierzbice",
    "id2": "SP-01289",
    "loc": "JO80KW",
    "status": "F",
    "lat": 50.95421944444445,
    "lon": 16.89141944444444
  },
  {
    "id": "DWR18",
    "name": "Mirosławiczki",
    "id2": "SP-01290",
    "loc": "JO80JW",
    "status": "F",
    "lat": 50.949130555555556,
    "lon": 16.789161111111113
  },
  {
    "id": "DWR19",
    "name": "Żórawina I                    kośc.obr.",
    "id2": "SP-01291",
    "loc": "JO80MX",
    "status": "F",
    "lat": 50.979908333333334,
    "lon": 17.039172222222223
  },
  {
    "id": "DWR20",
    "name": "Żórawina II               Wasserburg",
    "id2": "SP-01292",
    "loc": "JO80MX",
    "status": "M",
    "lat": 50.981613888888894,
    "lon": 17.03806944444445
  },
  {
    "id": "DWR21",
    "name": "Kunów",
    "id2": "SP-01371",
    "loc": "JO80JV",
    "status": "M",
    "lat": 50.89644722222222,
    "lon": 16.79692222222222
  },
  {
    "id": "DWR22",
    "name": "Mietków",
    "id2": "SP-01372",
    "loc": "JO80HX",
    "status": "R",
    "lat": 50.97334722222222,
    "lon": 16.64862777777778
  },
  {
    "id": "DWR23",
    "name": "Sadków",
    "id2": "SP-01373",
    "loc": "JO81KB",
    "status": "M",
    "lat": 51.04853333333333,
    "lon": 16.833230555555556
  },
  {
    "id": "DWW01",
    "name": "Wrocław I                      Arsenał",
    "id2": "SP-00350",
    "loc": "JO81MC",
    "status": "M",
    "lat": 51.11308611111111,
    "lon": 17.026666666666667
  },
  {
    "id": "DWW02",
    "name": "Wrocław II                   z.Leśnica",
    "id2": "SP-00351",
    "loc": "JO81KD",
    "status": "Z",
    "lat": 51.14631388888889,
    "lon": 16.87045
  },
  {
    "id": "DWW03",
    "name": "Wrocław III           Ostrów Tumski",
    "id2": "SP-00352",
    "loc": "JO81MC",
    "status": "M",
    "lat": 51.115272222222224,
    "lon": 17.042875000000002
  },
  {
    "id": "DWW04",
    "name": "Wrocław IV                z.Cesarski ",
    "id2": "SP-00353",
    "loc": "JO81MC",
    "status": "M",
    "lat": 51.114125,
    "lon": 17.035358333333335
  },
  {
    "id": "DZO01",
    "name": "Bogatynia-Trzciniec",
    "id2": "SP-00354",
    "loc": "JO70KW",
    "status": "R",
    "lat": 50.957727777777784,
    "lon": 14.900575
  },
  {
    "id": "DZO02",
    "name": "Łagów",
    "id2": "SP-00355",
    "loc": "JO71ME",
    "status": "Z",
    "lat": 51.169780555555555,
    "lon": 15.039519444444444
  },
  {
    "id": "DZO03",
    "name": "Pieńsk",
    "id2": "SP-00356",
    "loc": "JO71MF",
    "status": "M",
    "lat": 51.249766666666666,
    "lon": 15.044177777777778
  },
  {
    "id": "DZO04",
    "name": "Jędrzychowice",
    "id2": "SP-00357",
    "loc": "JO71ME",
    "status": "R",
    "lat": 51.1841,
    "lon": 15.017797222222223
  },
  {
    "id": "DZO05",
    "name": "Kostrzyna",
    "id2": "SP-00358",
    "loc": "JO71LA",
    "status": "R",
    "lat": 51.01891111111111,
    "lon": 14.997991666666666
  },
  {
    "id": "DZO06",
    "name": "Porajów",
    "id2": "SP-00359",
    "loc": "JO70KV",
    "status": "F",
    "lat": 50.88516388888889,
    "lon": 14.837661111111112
  },
  {
    "id": "DZS01",
    "name": "Bardo Śląskie I ",
    "id2": "SP-00360",
    "loc": "JO80IM",
    "status": "R",
    "lat": 50.50139166666667,
    "lon": 16.734116666666665
  },
  {
    "id": "DZS02",
    "name": "Bobolice",
    "id2": "SP-00361",
    "loc": "JO80KO",
    "status": "R",
    "lat": 50.61789722222222,
    "lon": 16.848741666666665
  },
  {
    "id": "DZS03",
    "name": "Chałupki",
    "id2": "SP-00362",
    "loc": "JO80LL",
    "status": "M",
    "lat": 50.48661666666667,
    "lon": 16.995536111111115
  },
  {
    "id": "DZS04",
    "name": "Ciepłowody",
    "id2": "SP-00363",
    "loc": "JO80KQ",
    "status": "R",
    "lat": 50.67379444444444,
    "lon": 16.90031111111111
  },
  {
    "id": "DZS05",
    "name": "Grodziszcze             g.Zamkowa",
    "id2": "SP-00364",
    "loc": "JO80HO",
    "status": "R",
    "lat": 50.622997222222224,
    "lon": 16.610455555555557
  },
  {
    "id": "DZS06",
    "name": "Kamieniec Ząbkowicki",
    "id2": "SP-00365",
    "loc": "JO80KM",
    "status": "Z",
    "lat": 50.521144444444445,
    "lon": 16.88073888888889
  },
  {
    "id": "DZS07",
    "name": "Rudnica",
    "id2": "SP-00366",
    "loc": "JO80IO",
    "status": "R",
    "lat": 50.61140555555556,
    "lon": 16.674169444444445
  },
  {
    "id": "DZS08",
    "name": "Służejów",
    "id2": "SP-00367",
    "loc": "JO80LN",
    "status": "Z",
    "lat": 50.581100000000006,
    "lon": 16.98267222222222
  },
  {
    "id": "DZS09",
    "name": "Stolec",
    "id2": "SP-00368",
    "loc": "JO80KO",
    "status": "F",
    "lat": 50.59014722222223,
    "lon": 16.884697222222222
  },
  {
    "id": "DZS10",
    "name": "Stoszowice",
    "id2": "SP-00369",
    "loc": "JO80JO",
    "status": "Z",
    "lat": 50.603144444444446,
    "lon": 16.75335
  },
  {
    "id": "DZS11",
    "name": "Witostowice",
    "id2": "SP-00370",
    "loc": "JO80MQ",
    "status": "Z",
    "lat": 50.682199999999995,
    "lon": 17.043641666666666
  },
  {
    "id": "DZS12",
    "name": "Ząbkowice Śl. I      Krzywa wieża",
    "id2": "SP-00371",
    "loc": "JO80JO",
    "status": "F",
    "lat": 50.58888888888889,
    "lon": 16.809711111111113
  },
  {
    "id": "DZS13",
    "name": "Ząbkowice Śl. II    z.Frankenstein",
    "id2": "SP-00372",
    "loc": "JO80JO",
    "status": "R",
    "lat": 50.586708333333334,
    "lon": 16.807405555555555
  },
  {
    "id": "DZS14",
    "name": "Ziębice I                    z.Książęcy",
    "id2": "SP-00373",
    "loc": "JO80MO",
    "status": "M",
    "lat": 50.60262222222222,
    "lon": 17.04296388888889
  },
  {
    "id": "DZS15",
    "name": "Ziębice II              z.Nowy Zamek",
    "id2": "SP-00374",
    "loc": "JO80MO",
    "status": "M",
    "lat": 50.60009166666667,
    "lon": 17.044336111111114
  },
  {
    "id": "DZS16",
    "name": "Złoty Stok",
    "id2": "SP-00375",
    "loc": "JO80KK",
    "status": "M",
    "lat": 50.442005555555546,
    "lon": 16.86835
  },
  {
    "id": "DZS17",
    "name": "Kluczowa",
    "id2": "SP-00376",
    "loc": "JO80JP",
    "status": "R",
    "lat": 50.65161666666667,
    "lon": 16.759486111111112
  },
  {
    "id": "DZS18",
    "name": "Sieroszów",
    "id2": "SP-00377",
    "loc": "JO80KO",
    "status": "R",
    "lat": 50.61503611111111,
    "lon": 16.893725
  },
  {
    "id": "DZS19",
    "name": "Bardo śląskie II",
    "id2": "SP-01374",
    "loc": "JO80IM",
    "status": "M",
    "lat": 50.503708333333336,
    "lon": 16.739969444444444
  },
  {
    "id": "DZS20",
    "name": "Sulisławice",
    "id2": "SP-01375",
    "loc": "JO80JP",
    "status": "M",
    "lat": 50.655011111111115,
    "lon": 16.819358333333334
  },
  {
    "id": "DZT01",
    "name": "Zagrodno                   z.Grodziec",
    "id2": "SP-00378",
    "loc": "JO71VE",
    "status": "Z",
    "lat": 51.17695277777778,
    "lon": 15.759186111111111
  },
  {
    "id": "DZT02",
    "name": "Nowy Kościół",
    "id2": "SP-00379",
    "loc": "JO71WB",
    "status": "M",
    "lat": 51.069433333333336,
    "lon": 15.863155555555554
  },
  {
    "id": "DZT03",
    "name": "Olszanica",
    "id2": "SP-00380",
    "loc": "JO71VE",
    "status": "M",
    "lat": 51.205913888888894,
    "lon": 15.801558333333334
  },
  {
    "id": "DZT04",
    "name": "Radziechów",
    "id2": "SP-00381",
    "loc": "JO71VF",
    "status": "R",
    "lat": 51.23480833333333,
    "lon": 15.818677777777777
  },
  {
    "id": "DZT05",
    "name": "Rokitnica",
    "id2": "SP-00382",
    "loc": "JO71XD",
    "status": "R",
    "lat": 51.12779722222223,
    "lon": 15.968011111111112
  },
  {
    "id": "DZT06",
    "name": "Sędziszowa I",
    "id2": "SP-00383",
    "loc": "JO71WA",
    "status": "Z",
    "lat": 51.018633333333334,
    "lon": 15.883597222222221
  },
  {
    "id": "DZT07",
    "name": "Sępów",
    "id2": "SP-00384",
    "loc": "JO71WC",
    "status": "M",
    "lat": 51.09973333333334,
    "lon": 15.892569444444444
  },
  {
    "id": "DZT08",
    "name": "Sokołowiec",
    "id2": "SP-00385",
    "loc": "JO71VA",
    "status": "M",
    "lat": 51.035525,
    "lon": 15.827741666666666
  },
  {
    "id": "DZT09",
    "name": "Stara Kraśnica",
    "id2": "SP-00386",
    "loc": "JO71WA",
    "status": "R",
    "lat": 51.010019444444445,
    "lon": 15.900577777777778
  },
  {
    "id": "DZT10",
    "name": "Świerzawa    ",
    "id2": "SP-00387",
    "loc": "JO71WA",
    "status": "M",
    "lat": 51.01515555555556,
    "lon": 15.891263888888888
  },
  {
    "id": "DZT11",
    "name": "Sędziszowa II        g.Wielisławka",
    "id2": "SP-00388",
    "loc": "JO71WA",
    "status": "R",
    "lat": 51.036538888888884,
    "lon": 15.871558333333335
  },
  {
    "id": "DZT12",
    "name": "Wojcieszów Dolny      ",
    "id2": "SP-00389",
    "loc": "JO70WX",
    "status": "R",
    "lat": 50.976016666666666,
    "lon": 15.907449999999999
  },
  {
    "id": "DZT13",
    "name": "Złotoryja",
    "id2": "SP-00390",
    "loc": "JO71WD",
    "status": "M",
    "lat": 51.126577777777776,
    "lon": 15.9126
  },
  {
    "id": "FAG01",
    "name": "Osiek",
    "id2": "SP-00391",
    "loc": "JO93FR",
    "status": "R",
    "lat": 53.71888055555556,
    "lon": 18.489461111111112
  },
  {
    "id": "FAG02",
    "name": "Skarszewy",
    "id2": "SP-00392",
    "loc": "JO94FB",
    "status": "Z",
    "lat": 54.07214444444445,
    "lon": 18.444205555555556
  },
  {
    "id": "FAG03",
    "name": "Starogard Gdański I ",
    "id2": "SP-00393",
    "loc": "JO93GX",
    "status": "F",
    "lat": 53.968650000000004,
    "lon": 18.531255555555553
  },
  {
    "id": "FAG04",
    "name": "Borzechowo  (w-pa Starościńska)",
    "id2": "SP-00394",
    "loc": "JO93EV",
    "status": "R",
    "lat": 53.887680555555555,
    "lon": 18.37872777777778
  },
  {
    "id": "FAG05",
    "name": "Kościelna Jania",
    "id2": "SP-00395",
    "loc": "JO93HS",
    "status": "F",
    "lat": 53.75245555555556,
    "lon": 18.603230555555555
  },
  {
    "id": "FAG06",
    "name": "Rynkówka",
    "id2": "SP-00396",
    "loc": "JO93HQ",
    "status": "F",
    "lat": 53.69514999999999,
    "lon": 18.607963888888893
  },
  {
    "id": "FAG07",
    "name": "Grabowo Bobowskie",
    "id2": "SP-00397",
    "loc": "JO93GU",
    "status": "M",
    "lat": 53.84429166666666,
    "lon": 18.58126111111111
  },
  {
    "id": "FAG08",
    "name": "Sucumin",
    "id2": "SP-00398",
    "loc": "JO93FW",
    "status": "F",
    "lat": 53.93800833333333,
    "lon": 18.43628888888889
  },
  {
    "id": "FAG09",
    "name": "Starogard Gdański II",
    "id2": "SP-01376",
    "loc": "JO93GX",
    "status": "M",
    "lat": 53.97106944444445,
    "lon": 18.51067777777778
  },
  {
    "id": "FCJ01",
    "name": "Chojnice",
    "id2": "SP-00399",
    "loc": "JO83SQ",
    "status": "R",
    "lat": 53.69537777777778,
    "lon": 17.559161111111113
  },
  {
    "id": "FCJ02",
    "name": "Charzykowy",
    "id2": "SP-01377",
    "loc": "JO83RR",
    "status": "M",
    "lat": 53.743125,
    "lon": 17.495483333333336
  },
  {
    "id": "FCU01",
    "name": "Czarne",
    "id2": "SP-00400",
    "loc": "JO83LQ",
    "status": "R",
    "lat": 53.685958333333325,
    "lon": 16.939772222222224
  },
  {
    "id": "FCU02",
    "name": "Człuchów",
    "id2": "SP-00401",
    "loc": "JO83QP",
    "status": "R",
    "lat": 53.664186111111114,
    "lon": 17.362244444444443
  },
  {
    "id": "FCU03",
    "name": "Debrzno",
    "id2": "SP-00402",
    "loc": "JO83OM",
    "status": "M",
    "lat": 53.53498333333333,
    "lon": 17.232844444444442
  },
  {
    "id": "FCU04",
    "name": "Szczytno",
    "id2": "SP-01295",
    "loc": "JO83OS",
    "status": "M",
    "lat": 53.75439444444445,
    "lon": 17.198077777777776
  },
  {
    "id": "FEB01",
    "name": "Białogarda",
    "id2": "SP-00403",
    "loc": "JO84TP",
    "status": "M",
    "lat": 54.653622222222225,
    "lon": 17.65236388888889
  },
  {
    "id": "FEB02",
    "name": "Lębork",
    "id2": "SP-00404",
    "loc": "JO84VN",
    "status": "F",
    "lat": 54.54326666666667,
    "lon": 17.752658333333336
  },
  {
    "id": "FEB03",
    "name": "Nowęcin",
    "id2": "SP-00405",
    "loc": "JO84TS",
    "status": "F",
    "lat": 54.75338055555555,
    "lon": 17.58924722222222
  },
  {
    "id": "FEB04",
    "name": "Stara Łeba",
    "id2": "SP-01378",
    "loc": "JO84SS",
    "status": "M",
    "lat": 54.76423333333334,
    "lon": 17.534461111111113
  },
  {
    "id": "FGD01",
    "name": "Gdańsk I                   zam.krzyż.",
    "id2": "SP-00406",
    "loc": "JO94HI",
    "status": "F",
    "lat": 54.35422500000001,
    "lon": 18.65946111111111
  },
  {
    "id": "FGD02",
    "name": "Gdańsk II    Twierdza Wisłoujście",
    "id2": "SP-00407",
    "loc": "JO94IJ",
    "status": "Z",
    "lat": 54.39588333333334,
    "lon": 18.67919722222222
  },
  {
    "id": "FGD03",
    "name": "Gdańsk III           Biskupia Górka",
    "id2": "SP-00408",
    "loc": "JO94HI",
    "status": "M",
    "lat": 54.34338611111111,
    "lon": 18.638247222222223
  },
  {
    "id": "FGD04",
    "name": "Gdańsk IV    Oliwa-pałac Opatów",
    "id2": "SP-00409",
    "loc": "JO94GJ",
    "status": "F",
    "lat": 54.41098888888889,
    "lon": 18.559955555555558
  },
  {
    "id": "FIY01",
    "name": "Kwidzyn I                  zam.krzyż.",
    "id2": "SP-00410",
    "loc": "JO93LR",
    "status": "M",
    "lat": 53.73353888888889,
    "lon": 18.92064722222222
  },
  {
    "id": "FIY02",
    "name": "Kwidzyn II                   zam.bisk.",
    "id2": "SP-00411",
    "loc": "JO93LR",
    "status": "Z",
    "lat": 53.73628611111111,
    "lon": 18.921144444444447
  },
  {
    "id": "FIY03",
    "name": "Prabuty",
    "id2": "SP-00412",
    "loc": "JO93OS",
    "status": "R",
    "lat": 53.75944722222223,
    "lon": 19.195216666666667
  },
  {
    "id": "FIY04",
    "name": "Podzamcze               Biały Dwór",
    "id2": "SP-01298",
    "loc": "JO93LT",
    "status": "Z",
    "lat": 53.80023333333333,
    "lon": 18.925452777777778
  },
  {
    "id": "FIY05",
    "name": "Tychnowy           Czerwony Dwór",
    "id2": "SP-01299",
    "loc": "JO93LS",
    "status": "Z",
    "lat": 53.78037777777778,
    "lon": 18.934216666666668
  },
  {
    "id": "FIY06",
    "name": "Benowo",
    "id2": "SP-01379",
    "loc": "JO93LV",
    "status": "M",
    "lat": 53.89317777777778,
    "lon": 18.927744444444446
  },
  {
    "id": "FMB01",
    "name": "Malbork I",
    "id2": "SP-00413",
    "loc": "JO94MA",
    "status": "Z",
    "lat": 54.03973333333333,
    "lon": 19.027922222222223
  },
  {
    "id": "FMB02",
    "name": "Laski",
    "id2": "SP-00414",
    "loc": "JO94LD",
    "status": "M",
    "lat": 54.12170833333334,
    "lon": 18.995844444444444
  },
  {
    "id": "FMB03",
    "name": "Mątowy Małe",
    "id2": "SP-00415",
    "loc": "JO93KX",
    "status": "M",
    "lat": 53.997844444444446,
    "lon": 18.866933333333336
  },
  {
    "id": "FMB04",
    "name": "Malbork II - Kałdowo",
    "id2": "SP-01380",
    "loc": "JO94MB",
    "status": "M",
    "lat": 54.04223888888889,
    "lon": 19.024616666666667
  },
  {
    "id": "FMB05",
    "name": "Kościeleczki        dwór Warnowo",
    "id2": "SP-01381",
    "loc": "JO94MB",
    "status": "M",
    "lat": 54.06030277777778,
    "lon": 19.01742222222222
  },
  {
    "id": "FMB06",
    "name": "Lasowice",
    "id2": "SP-01382",
    "loc": "JO94MC",
    "status": "M",
    "lat": 54.08858055555556,
    "lon": 19.074433333333335
  },
  {
    "id": "FMB07",
    "name": "Malbork III - Piaski",
    "id2": "SP-01383",
    "loc": "JO94MB",
    "status": "M",
    "lat": 54.04210555555555,
    "lon": 19.06777222222222
  },
  {
    "id": "FMB08",
    "name": "Miłoradz",
    "id2": "SP-01384",
    "loc": "JO94KA",
    "status": "M",
    "lat": 54.01393611111111,
    "lon": 18.91599722222222
  },
  {
    "id": "FMB09",
    "name": "Górki                      (Gorgken)",
    "id2": "SP-01385",
    "loc": "JO94MD",
    "status": "M",
    "lat": 54.133377777777774,
    "lon": 19.002824999999998
  },
  {
    "id": "FNR01",
    "name": "Skowronki",
    "id2": "SP-01386",
    "loc": "JO94PI",
    "status": "M",
    "lat": 54.351980555555556,
    "lon": 19.286327777777778
  },
  {
    "id": "FNR02",
    "name": "Szkarpawa",
    "id2": "SP-01387",
    "loc": "JO94MG",
    "status": "M",
    "lat": 54.26111944444445,
    "lon": 19.071397222222224
  },
  {
    "id": "FPK01",
    "name": "Krokowa",
    "id2": "SP-00416",
    "loc": "JO94BS",
    "status": "Z",
    "lat": 54.777036111111116,
    "lon": 18.163616666666666
  },
  {
    "id": "FPK02",
    "name": "Puck",
    "id2": "SP-00417",
    "loc": "JO94ER",
    "status": "R",
    "lat": 54.72195833333333,
    "lon": 18.409605555555554
  },
  {
    "id": "FPK03",
    "name": "Rzucewo",
    "id2": "SP-00418",
    "loc": "JO94FQ",
    "status": "F",
    "lat": 54.68789444444444,
    "lon": 18.464644444444442
  },
  {
    "id": "FRU01",
    "name": "Łapalice",
    "id2": "SP-00419",
    "loc": "JO94BH",
    "status": "F",
    "lat": 54.33086388888889,
    "lon": 18.139530555555556
  },
  {
    "id": "FRU02",
    "name": "Mirachowo",
    "id2": "SP-01388",
    "loc": "JO94AJ",
    "status": "M",
    "lat": 54.39474444444444,
    "lon": 18.026941666666666
  },
  {
    "id": "FSL01",
    "name": "Łupawa",
    "id2": "SP-00420",
    "loc": "JO84RJ",
    "status": "F",
    "lat": 54.413513888888886,
    "lon": 17.41809166666667
  },
  {
    "id": "FSL02",
    "name": "Wytowno",
    "id2": "SP-00421",
    "loc": "JO84LO",
    "status": "F",
    "lat": 54.58860833333334,
    "lon": 16.976952777777775
  },
  {
    "id": "FSL03",
    "name": "Zimowiska",
    "id2": "SP-00422",
    "loc": "JO84KN",
    "status": "F",
    "lat": 54.560827777777774,
    "lon": 16.911216666666668
  },
  {
    "id": "FTC01",
    "name": "Gniew",
    "id2": "SP-00423",
    "loc": "JO93JU",
    "status": "Z",
    "lat": 53.83441388888889,
    "lon": 18.827525
  },
  {
    "id": "FTC02",
    "name": "Tczew I",
    "id2": "SP-00424",
    "loc": "JO94JC",
    "status": "M",
    "lat": 54.08862777777778,
    "lon": 18.80231388888889
  },
  {
    "id": "FTC03",
    "name": "Lubiszewo I              zamczysko",
    "id2": "SP-00425",
    "loc": "JO94IC",
    "status": "F",
    "lat": 54.089730555555555,
    "lon": 18.707783333333335
  },
  {
    "id": "FTC04",
    "name": "Lubiszewo II              na wzgórzu",
    "id2": "SP-00426",
    "loc": "JO94IC",
    "status": "M",
    "lat": 54.0718388888889,
    "lon": 18.713202777777777
  },
  {
    "id": "FTC05",
    "name": "Tymawa",
    "id2": "SP-00427",
    "loc": "JO93JT",
    "status": "M",
    "lat": 53.799108333333336,
    "lon": 18.81176388888889
  },
  {
    "id": "FTC06",
    "name": "Tczew II",
    "id2": "SP-01389",
    "loc": "JO94JC",
    "status": "M",
    "lat": 54.08627222222223,
    "lon": 18.802802777777778
  },
  {
    "id": "FTC07",
    "name": "Pomyje",
    "id2": "SP-01390",
    "loc": "JO93IV",
    "status": "M",
    "lat": 53.90803333333333,
    "lon": 18.74785
  },
  {
    "id": "FTC08",
    "name": "Subkowy",
    "id2": "SP-01391",
    "loc": "JO94JA",
    "status": "F",
    "lat": 54.000675,
    "lon": 18.76790833333333
  },
  {
    "id": "FTC09",
    "name": "Międzyłęż",
    "id2": "SP-01392",
    "loc": "JO93KW",
    "status": "M",
    "lat": 53.94990277777777,
    "lon": 18.843680555555554
  },
  {
    "id": "FUG01",
    "name": "Grabiny Zameczek",
    "id2": "SP-00428",
    "loc": "JO94IF",
    "status": "F",
    "lat": 54.23703611111112,
    "lon": 18.746041666666667
  },
  {
    "id": "FUG02",
    "name": "Sobowidz",
    "id2": "SP-00429",
    "loc": "JO94HD",
    "status": "R",
    "lat": 54.14469166666667,
    "lon": 18.595325
  },
  {
    "id": "FUG03",
    "name": "Pruszcz Gdański I ",
    "id2": "SP-00430",
    "loc": "JO94HG",
    "status": "F",
    "lat": 54.25732222222223,
    "lon": 18.63355
  },
  {
    "id": "FUG04",
    "name": "Pruszcz Gdański II",
    "id2": "SP-01393",
    "loc": "JO94HF",
    "status": "M",
    "lat": 54.24924444444444,
    "lon": 18.625947222222223
  },
  {
    "id": "FUG05",
    "name": "Leszkowy",
    "id2": "SP-01394",
    "loc": "JO94KF",
    "status": "M",
    "lat": 54.23023888888889,
    "lon": 18.90476388888889
  },
  {
    "id": "FUK01",
    "name": "Słupsk I ",
    "id2": "SP-00431",
    "loc": "JO84ML",
    "status": "Z",
    "lat": 54.46391111111111,
    "lon": 17.034561111111113
  },
  {
    "id": "FUK02",
    "name": "Słupsk II",
    "id2": "SP-00432",
    "loc": "JO84ML",
    "status": "M",
    "lat": 54.46591111111111,
    "lon": 17.0375
  },
  {
    "id": "FUM01",
    "name": "Dzierzgoń     ",
    "id2": "SP-00433",
    "loc": "JO93QW",
    "status": "M",
    "lat": 53.92411666666667,
    "lon": 19.344738888888887
  },
  {
    "id": "FUM02",
    "name": "Przezmark",
    "id2": "SP-00434",
    "loc": "JO93RU",
    "status": "R",
    "lat": 53.85756666666667,
    "lon": 19.494855555555556
  },
  {
    "id": "FUM03",
    "name": "Stary Dzierzgoń",
    "id2": "SP-00435",
    "loc": "JO93QU",
    "status": "M",
    "lat": 53.85556666666667,
    "lon": 19.405924999999996
  },
  {
    "id": "FUM04",
    "name": "Sztum",
    "id2": "SP-00436",
    "loc": "JO93MV",
    "status": "F",
    "lat": 53.91520555555555,
    "lon": 19.040036111111114
  },
  {
    "id": "FUM05",
    "name": "Jeziorno",
    "id2": "SP-00437",
    "loc": "JO93PW",
    "status": "F",
    "lat": 53.94696388888889,
    "lon": 19.291894444444445
  },
  {
    "id": "FUM06",
    "name": "Stążki",
    "id2": "SP-01395",
    "loc": "JO93OU",
    "status": "F",
    "lat": 53.833911111111114,
    "lon": 19.241775
  },
  {
    "id": "FUM07",
    "name": "Zantyr",
    "id2": "SP-01495",
    "loc": "JO93KV",
    "status": "M",
    "lat": 53.91063611111111,
    "lon": 18.887858333333334
  },
  {
    "id": "FWJ01",
    "name": "Chynowie",
    "id2": "SP-00438",
    "loc": "JO94AP",
    "status": "F",
    "lat": 54.637075,
    "lon": 18.015294444444446
  },
  {
    "id": "FYA01",
    "name": "Zamek Kiszewski ",
    "id2": "SP-00439",
    "loc": "JO93CX",
    "status": "F",
    "lat": 53.984677777777776,
    "lon": 18.19353611111111
  },
  {
    "id": "FYA02",
    "name": "Kościerzyna",
    "id2": "SP-01396",
    "loc": "JO84XC",
    "status": "Z",
    "lat": 54.12347777777778,
    "lon": 17.982063888888888
  },
  {
    "id": "FYW01",
    "name": "Bytów",
    "id2": "SP-00440",
    "loc": "JO84RE",
    "status": "Z",
    "lat": 54.16854444444444,
    "lon": 17.491644444444443
  },
  {
    "id": "FYW02",
    "name": "Tuchomie",
    "id2": "SP-01300",
    "loc": "JO84PC",
    "status": "M",
    "lat": 54.107422222222226,
    "lon": 17.32884166666667
  },
  {
    "id": "GBB01",
    "name": "Czaniec",
    "id2": "SP-00441",
    "loc": "JN99OU",
    "status": "F",
    "lat": 49.863030555555554,
    "lon": 19.23979166666667
  },
  {
    "id": "GBB02",
    "name": "Grodziec",
    "id2": "SP-00442",
    "loc": "JN99KT",
    "status": "Z",
    "lat": 49.803552777777774,
    "lon": 18.86362777777778
  },
  {
    "id": "GBB03",
    "name": "Kobiernice                     z.Wołek",
    "id2": "SP-00443",
    "loc": "JN99OT",
    "status": "R",
    "lat": 49.83120277777778,
    "lon": 19.202841666666664
  },
  {
    "id": "GBH01",
    "name": "Bielsko–Biała",
    "id2": "SP-00444",
    "loc": "JN99MT",
    "status": "Z",
    "lat": 49.82179166666667,
    "lon": 19.044536111111114
  },
  {
    "id": "GBN01",
    "name": "Będzin",
    "id2": "SP-00445",
    "loc": "JO90NH",
    "status": "Z",
    "lat": 50.327275,
    "lon": 19.129077777777777
  },
  {
    "id": "GBN02",
    "name": "Sławków",
    "id2": "SP-00446",
    "loc": "JO90QH",
    "status": "F",
    "lat": 50.29663055555555,
    "lon": 19.39143333333333
  },
  {
    "id": "GBN03",
    "name": "Siewierz",
    "id2": "SP-00447",
    "loc": "JO90OL",
    "status": "R",
    "lat": 50.46734722222222,
    "lon": 19.241652777777777
  },
  {
    "id": "GBN04",
    "name": "Dobieszowice",
    "id2": "SP-00448",
    "loc": "JO90MJ",
    "status": "Z",
    "lat": 50.396030555555555,
    "lon": 19.001458333333336
  },
  {
    "id": "GCT01",
    "name": "Częstochowa I          Jasna Góra",
    "id2": "SP-00449",
    "loc": "JO90NT",
    "status": "Z",
    "lat": 50.812625,
    "lon": 19.096955555555553
  },
  {
    "id": "GCT02",
    "name": "Częstochowa II              Błeszno",
    "id2": "SP-00450",
    "loc": "JO90NS",
    "status": "F",
    "lat": 50.763099999999994,
    "lon": 19.151266666666665
  },
  {
    "id": "GCT03",
    "name": "Częstochowa III                Mirów",
    "id2": "SP-00451",
    "loc": "JO90OT",
    "status": "M",
    "lat": 50.824172222222224,
    "lon": 19.207291666666666
  },
  {
    "id": "GCY01",
    "name": "Cieszyn I                   góra zamk.",
    "id2": "SP-00452",
    "loc": "JN99HS",
    "status": "Z",
    "lat": 49.751447222222225,
    "lon": 18.626102777777778
  },
  {
    "id": "GCY02",
    "name": "Dzięgielów I                    z.dolny",
    "id2": "SP-00453",
    "loc": "JN99IR",
    "status": "Z",
    "lat": 49.715894444444444,
    "lon": 18.71787222222222
  },
  {
    "id": "GCY03",
    "name": "Dzięgielów II                   z.górny",
    "id2": "SP-00454",
    "loc": "JN99IR",
    "status": "M",
    "lat": 49.71460555555556,
    "lon": 18.71955833333333
  },
  {
    "id": "GCY04",
    "name": "Kończyce Małe",
    "id2": "SP-00455",
    "loc": "JN99HU",
    "status": "Z",
    "lat": 49.85061666666667,
    "lon": 18.633475
  },
  {
    "id": "GCY05",
    "name": "Strumień",
    "id2": "SP-00456",
    "loc": "JN99JW",
    "status": "Z",
    "lat": 49.92077222222222,
    "lon": 18.769152777777776
  },
  {
    "id": "GCY06",
    "name": "Cieszyn II                    Błogocice",
    "id2": "SP-00457",
    "loc": "JN99HR",
    "status": "F",
    "lat": 49.73176111111111,
    "lon": 18.633041666666667
  },
  {
    "id": "GCY07",
    "name": "Skoczów",
    "id2": "SP-00458",
    "loc": "JN99JT",
    "status": "M",
    "lat": 49.80230833333333,
    "lon": 18.788991666666668
  },
  {
    "id": "GCY08",
    "name": "Zebrzydowice",
    "id2": "SP-00459",
    "loc": "JN99HV",
    "status": "Z",
    "lat": 49.881461111111115,
    "lon": 18.616244444444447
  },
  {
    "id": "GCY09",
    "name": "Cieszyn III                 Marklowice",
    "id2": "SP-00460",
    "loc": "JN99HS",
    "status": "Z",
    "lat": 49.788780555555554,
    "lon": 18.603836111111114
  },
  {
    "id": "GCY10",
    "name": "Koczy Zamek",
    "id2": "SP-00461",
    "loc": "JN99LN",
    "status": "M",
    "lat": 49.548375,
    "lon": 18.975719444444444
  },
  {
    "id": "GCY11 ",
    "name": "Kowale",
    "id2": "SP-00462",
    "loc": "JN99KT",
    "status": "M",
    "lat": 49.826075,
    "lon": 18.84016388888889
  },
  {
    "id": "GCZ01",
    "name": "Lelów",
    "id2": "SP-00463",
    "loc": "JO90TQ",
    "status": "M",
    "lat": 50.685380555555554,
    "lon": 19.62378888888889
  },
  {
    "id": "GCZ02",
    "name": "Mstów   ",
    "id2": "SP-00464",
    "loc": "JO90PT",
    "status": "Z",
    "lat": 50.833155555555564,
    "lon": 19.289955555555558
  },
  {
    "id": "GCZ03",
    "name": "Olsztyn              z.Przymołowice",
    "id2": "SP-00465",
    "loc": "JO90PR",
    "status": "R",
    "lat": 50.749674999999996,
    "lon": 19.273902777777778
  },